timestamp,roll_deg,pitch_deg,yaw_deg,battery_voltage_V,battery_current_A,battery_temp_C,payload_temp_C,reaction_wheel_rpm,label,anomaly_type
2024-01-01 00:00:00+00:00,0.060961508,-0.010101752,-0.364607909,29.95029761,2.362917586,25.1176286,25.37594317,2963.761984,normal,none
2024-01-01 00:00:10+00:00,-0.158162723,0.160997023,0.21923584,30.06348186,2.34065578,24.57639991,24.88485,3016.249175,normal,none
2024-01-01 00:00:20+00:00,0.206193107,-0.203892739,0.020730551,29.93493964,2.534494057,25.13682526,25.72713067,3012.667924,normal,none
2024-01-01 00:00:30+00:00,0.248270408,0.14852641,-0.074411099,30.03583955,2.489679932,24.91596454,24.87232206,2996.735339,normal,none
2024-01-01 00:00:40+00:00,-0.273333539,0.277109304,0.034414474,30.03590538,2.23127629,26.26983416,24.67078068,2989.313892,normal,none
2024-01-01 00:00:50+00:00,-0.135582328,0.153949227,0.368046763,30.03525976,2.388308347,25.20381503,24.58504101,3022.347773,normal,none
2024-01-01 00:01:00+00:00,0.23780718,0.330229205,0.354736561,30.15274219,2.625508572,25.08060908,25.73957845,3009.306392,normal,none
2024-01-01 00:01:10+00:00,0.247810762,-0.004472345,0.189077877,30.09940005,2.522840594,24.84560637,25.27460979,3037.552268,normal,none
2024-01-01 00:01:20+00:00,0.250889674,-0.007504487,-0.056945279,29.92220017,2.466558243,25.43637468,25.46699885,3013.268349,normal,none
2024-01-01 00:01:30+00:00,0.111976255,0.32783718,-0.082015667,30.04338884,2.696035868,25.89959886,26.09183434,3019.543694,normal,none
2024-01-01 00:01:40+00:00,0.548692103,0.372728185,0.329363124,30.16147377,2.441222581,26.25868108,25.85837266,3053.207497,normal,none
2024-01-01 00:01:50+00:00,0.55634435,0.186424907,-0.058999855,30.12450916,2.610241763,25.60630446,25.33608198,3013.539304,normal,none
2024-01-01 00:02:00+00:00,0.435970712,0.374049472,0.10942823,30.09010973,2.718245712,26.47391989,26.46625197,3008.121841,normal,none
2024-01-01 00:02:10+00:00,0.630976598,0.501298539,1.004178107,30.42852803,2.507948337,26.12313263,25.77939236,3021.554877,normal,none
2024-01-01 00:02:20+00:00,0.578537409,0.300633617,0.469132357,30.32017367,2.684168401,26.08837599,25.93938506,3048.19164,normal,none
2024-01-01 00:02:30+00:00,0.38386516,0.320849631,0.472678978,30.33258181,2.507651546,26.50428611,25.74115924,3084.711354,normal,none
2024-01-01 00:02:40+00:00,0.561789273,0.494202142,0.132740689,30.31636588,2.629066213,26.89971267,25.66733149,3052.674517,normal,none
2024-01-01 00:02:50+00:00,0.374919212,0.553476712,0.053028277,30.14171601,2.379961692,26.57190129,26.31019843,3035.183781,normal,none
2024-01-01 00:03:00+00:00,0.704338863,0.275162609,0.67592908,30.16125526,2.409410087,26.18662274,25.77016454,3039.238224,normal,none
2024-01-01 00:03:10+00:00,0.583423113,0.533794598,0.329446916,30.45057589,2.653065166,26.85385884,26.2459566,3067.171988,normal,none
2024-01-01 00:03:20+00:00,0.562813248,0.513341645,0.712725862,30.44492814,2.838753243,26.97970457,27.08468716,3027.323644,normal,none
2024-01-01 00:03:30+00:00,0.577845443,0.573486779,0.486285615,30.17406054,2.755701193,26.84677413,26.76024199,3027.576643,normal,none
2024-01-01 00:03:40+00:00,0.940727676,0.602827313,1.405745605,30.39751791,2.927688928,27.28940309,26.59580961,3072.092681,normal,none
2024-01-01 00:03:50+00:00,0.775963218,0.565216124,0.358323171,30.51334477,2.799280629,26.43480986,26.17127827,3089.04039,normal,none
2024-01-01 00:04:00+00:00,0.749037554,0.853574217,0.757175685,30.34681854,2.57167893,27.27848072,26.69341494,3092.572718,normal,none
2024-01-01 00:04:10+00:00,0.780653453,0.579553143,0.354851315,30.68453659,2.939854756,27.47793832,26.38920814,3084.34558,normal,none
2024-01-01 00:04:20+00:00,0.874462014,0.609582861,0.9623408,30.69942274,2.720102897,26.87575882,27.40504008,3104.442892,normal,none
2024-01-01 00:04:30+00:00,0.973165355,0.487851647,0.73670146,30.48148424,2.928303561,26.96877975,26.78186102,3079.833456,normal,none
2024-01-01 00:04:40+00:00,1.040274953,0.712455504,0.406556784,30.57533111,2.564590566,27.85692563,26.60362765,3079.153236,normal,none
2024-01-01 00:04:50+00:00,1.085065449,0.841366809,0.569940805,30.42464299,2.862264667,28.05855942,26.87489087,3088.643901,normal,none
2024-01-01 00:05:00+00:00,1.377893212,0.794723487,1.011359492,30.42600635,2.932643793,28.12049848,26.73346262,3098.702647,normal,none
2024-01-01 00:05:10+00:00,0.953612336,0.914178349,1.061534772,30.46346557,3.019058907,27.56170972,27.25011462,3173.877501,normal,none
2024-01-01 00:05:20+00:00,0.939974046,0.849852983,0.453549843,30.63019372,2.923538179,27.96035287,28.00898232,3095.075521,normal,none
2024-01-01 00:05:30+00:00,0.920658138,1.181511301,0.658543049,30.79394059,2.915218774,28.02154309,27.32579286,3105.740636,normal,none
2024-01-01 00:05:40+00:00,1.332344931,0.753429043,1.202495665,30.70610254,2.932364425,27.53264596,27.01570385,3139.884862,normal,none
2024-01-01 00:05:50+00:00,1.373623266,0.712884619,0.780504067,30.66076314,2.932094643,28.18207544,27.36460422,3119.343418,normal,none
2024-01-01 00:06:00+00:00,1.195773915,0.7782991,0.839889697,30.45582599,3.026257286,28.30665159,27.05376736,3077.749969,normal,none
2024-01-01 00:06:10+00:00,1.128219493,0.904154784,0.97898257,30.48093527,2.940070314,28.56815529,28.79454106,3148.799735,normal,none
2024-01-01 00:06:20+00:00,1.089619978,0.953136098,0.547120578,30.78940922,2.873299236,28.26287896,28.2805854,3123.911319,normal,none
2024-01-01 00:06:30+00:00,1.439614903,1.006340631,0.574095563,30.86950667,2.808551468,28.84483562,28.16335177,3063.760197,normal,none
2024-01-01 00:06:40+00:00,1.500523207,1.172168226,0.802908859,30.82697888,3.081196826,28.68067461,27.97827869,3115.398306,normal,none
2024-01-01 00:06:50+00:00,1.489289089,1.306732422,1.238690374,30.65836947,2.940797922,29.18351295,27.78359123,3112.230167,normal,none
2024-01-01 00:07:00+00:00,1.214047209,1.146786616,1.190240439,30.86281283,2.897784156,28.94309297,27.82625723,3120.268123,normal,none
2024-01-01 00:07:10+00:00,1.489407012,1.428150932,1.141834384,30.72232972,3.166760072,28.92457775,27.88018397,3132.015252,normal,none
2024-01-01 00:07:20+00:00,1.560941171,1.038358846,1.035454815,30.83873038,3.05094019,28.52922828,29.0060403,3150.318243,normal,none
2024-01-01 00:07:30+00:00,1.466342766,0.930895902,1.343199742,30.58763631,2.962632678,28.62951908,27.99035504,3164.399098,normal,none
2024-01-01 00:07:40+00:00,1.747369134,1.331843068,1.069414679,30.83901316,3.250702511,29.52338546,27.97093802,3168.061624,normal,none
2024-01-01 00:07:50+00:00,1.610767701,0.805188405,1.207522664,30.92837072,3.142475395,29.42275187,28.1970256,3177.11541,normal,none
2024-01-01 00:08:00+00:00,1.69342648,1.091093515,1.310689511,30.78630945,2.876302697,29.23467289,28.51591176,3144.117989,normal,none
2024-01-01 00:08:10+00:00,1.732820827,1.335073853,1.601078202,30.86920608,3.29392355,29.24503806,26.98819131,3109.370412,normal,none
2024-01-01 00:08:20+00:00,1.744512986,1.308641361,1.064384729,30.72896477,3.009369102,29.49600141,28.65766888,3104.058554,normal,none
2024-01-01 00:08:30+00:00,1.743835555,1.226722778,1.053174257,30.80237528,3.699019051,29.05335196,27.50538671,3172.663322,normal,none
2024-01-01 00:08:40+00:00,1.418725811,1.089114348,1.476227138,30.99309636,3.117397067,29.37540053,29.2120905,3159.100101,normal,none
2024-01-01 00:08:50+00:00,1.699934479,1.388685709,1.521340388,30.8308005,2.843417016,29.7895249,27.88978795,3193.253745,normal,none
2024-01-01 00:09:00+00:00,1.659860894,1.471630114,1.07531303,30.88528394,3.433349136,29.96029443,28.36158713,3175.551983,normal,none
2024-01-01 00:09:10+00:00,1.697845513,1.383414586,0.929257864,30.86260702,3.281868199,29.70976539,28.0614102,3134.250568,normal,none
2024-01-01 00:09:20+00:00,1.760974134,1.297037587,1.561522236,30.87962087,3.264145378,30.3440111,29.57987381,3160.378672,normal,none
2024-01-01 00:09:30+00:00,2.179362378,1.270016486,0.782725551,30.77924906,3.38531749,30.28367409,28.93814714,3184.027514,normal,none
2024-01-01 00:09:40+00:00,1.77312613,1.319461586,0.852644132,30.99771572,2.993754241,29.71354494,29.89016994,3156.160362,normal,none
2024-01-01 00:09:50+00:00,2.061316887,1.462981037,1.150495805,30.99339506,2.965826172,29.73683046,29.86537643,3211.58933,normal,none
2024-01-01 00:10:00+00:00,1.601956931,1.587495052,1.338491385,31.10951766,3.54608506,30.2122994,29.64575481,3175.606794,normal,none
2024-01-01 00:10:10+00:00,1.864834621,1.36193927,1.059621256,30.68790031,3.042175416,30.02364038,28.69683555,3181.023533,normal,none
2024-01-01 00:10:20+00:00,2.020263421,1.166920175,1.338300563,31.06857501,3.541474721,30.05673968,29.26400857,3158.505075,normal,none
2024-01-01 00:10:30+00:00,2.065240274,1.713826012,1.350763199,31.24785195,3.418260679,30.38851209,29.78734565,3234.276753,normal,none
2024-01-01 00:10:40+00:00,2.14643492,1.478181613,1.203346478,31.12759974,3.324791425,30.63587065,29.50526051,3192.653821,normal,none
2024-01-01 00:10:50+00:00,2.207590201,1.635989339,1.875731914,31.02798191,3.267564137,30.87465842,29.27438876,3205.316657,normal,none
2024-01-01 00:11:00+00:00,2.059138194,1.469652639,1.389409825,30.97866123,3.642202808,30.55286651,29.53808018,3187.147465,normal,none
2024-01-01 00:11:10+00:00,2.0737611,1.467307982,1.604067285,31.22212769,3.208982543,30.02182101,29.75904684,3197.675195,normal,none
2024-01-01 00:11:20+00:00,2.23902361,1.632229738,1.067658682,31.14429505,3.275432545,30.93662772,28.97655651,3214.732292,normal,none
2024-01-01 00:11:30+00:00,2.080067882,1.922032399,1.023824179,31.13670206,3.498860793,30.57453202,29.42915194,3220.205444,normal,none
2024-01-01 00:11:40+00:00,1.959345171,1.84163918,1.467394807,31.30321414,3.270109931,30.87631213,30.00301444,3226.067754,normal,none
2024-01-01 00:11:50+00:00,1.879679011,1.767770457,1.784506321,31.19874508,3.310484763,30.88754642,30.16117903,3237.752969,normal,none
2024-01-01 00:12:00+00:00,2.022341507,1.792715497,1.169066977,31.06927904,3.338539458,31.62888758,29.9624944,3234.443922,normal,none
2024-01-01 00:12:10+00:00,2.347235654,1.461779539,1.407190653,31.24572416,3.434334424,31.65956904,29.76277218,3234.385294,normal,none
2024-01-01 00:12:20+00:00,2.366850749,1.606745687,1.167832957,31.12198665,3.740340056,30.92867018,29.91811899,3213.359919,normal,none
2024-01-01 00:12:30+00:00,2.470670195,1.439276584,1.300018666,31.17699086,3.747830411,30.65028781,29.68705389,3224.918511,normal,none
2024-01-01 00:12:40+00:00,2.218639329,2.006594169,1.634427784,31.15936254,3.122056127,30.76181853,30.18660432,3207.849399,normal,none
2024-01-01 00:12:50+00:00,2.355671205,2.031265914,1.325209532,31.21281988,3.664348602,31.32776534,30.55072971,3225.41108,normal,none
2024-01-01 00:13:00+00:00,2.47669023,1.867378976,1.22642191,31.29847011,3.286020615,31.17937163,31.30162783,3246.822925,normal,none
2024-01-01 00:13:10+00:00,2.39967647,1.911751806,1.143734776,31.21354618,3.43224212,31.00137769,29.84638662,3249.311283,normal,none
2024-01-01 00:13:20+00:00,2.476298753,1.653769054,1.024240511,31.3383961,3.294975307,31.24267488,30.90994713,3257.456337,normal,none
2024-01-01 00:13:30+00:00,2.279515981,1.790091557,1.666765703,31.18998961,3.341603524,31.64132712,30.59676061,3276.635776,normal,none
2024-01-01 00:13:40+00:00,2.392429453,2.144369596,1.677328562,31.33346396,3.350193097,31.45788596,29.95367439,3223.948429,normal,none
2024-01-01 00:13:50+00:00,2.385061478,2.03593278,1.817176202,31.29184325,3.198676508,31.44078625,30.47247586,3215.798175,normal,none
2024-01-01 00:14:00+00:00,2.238035789,1.80630495,1.361417085,31.09126788,3.786443782,31.52321929,30.6468398,3250.775442,normal,none
2024-01-01 00:14:10+00:00,2.548196643,1.701972921,1.816894917,31.32368149,3.609379114,31.67003132,30.73226043,3288.563839,normal,none
2024-01-01 00:14:20+00:00,2.431023927,2.148581327,1.9016063,31.2166816,3.505529385,31.71223209,31.23788253,3290.73748,normal,none
2024-01-01 00:14:30+00:00,2.524420939,2.044510892,1.58559754,31.19882462,3.393786917,31.84974728,31.53591659,3268.829579,normal,none
2024-01-01 00:14:40+00:00,2.716906389,1.739391575,1.574956264,31.2334637,3.751130515,31.41311073,31.3150485,3262.048501,normal,none
2024-01-01 00:14:50+00:00,2.702454425,1.86055313,1.469473312,31.40423827,3.498421706,31.84473021,31.01539318,3275.938363,normal,none
2024-01-01 00:15:00+00:00,2.729992819,1.78475249,1.661420608,31.37779889,3.44446304,31.80493094,31.10979833,3296.002252,normal,none
2024-01-01 00:15:10+00:00,2.629119051,2.020072756,2.093959041,31.36120231,3.216015449,31.65364396,31.91359006,3260.861604,normal,none
2024-01-01 00:15:20+00:00,2.530606522,2.141622797,2.011454767,31.23586307,3.684756474,31.8667193,30.6527043,3268.048515,normal,none
2024-01-01 00:15:30+00:00,2.685506318,2.041630296,1.550684808,31.34333747,3.460715062,32.37107051,31.69459448,3284.269115,normal,none
2024-01-01 00:15:40+00:00,2.327330022,2.144762599,1.79667649,31.32237311,3.629949044,32.30099323,30.76486331,3307.761431,normal,none
2024-01-01 00:15:50+00:00,2.420669118,2.203781458,1.399798951,31.34867583,3.607923779,32.26851495,30.57977366,3304.866625,normal,none
2024-01-01 00:16:00+00:00,2.367255338,2.271755351,1.815675331,31.28349936,3.688079558,31.92506718,31.57391584,3251.623368,normal,none
2024-01-01 00:16:10+00:00,2.529434002,2.030817837,1.43667171,31.42807343,3.5996537,31.84881562,30.74137475,3310.741929,normal,none
2024-01-01 00:16:20+00:00,2.721789794,2.615912192,1.869998054,31.30206379,3.576106807,31.95491913,31.37275464,3296.491009,normal,none
2024-01-01 00:16:30+00:00,2.457733553,2.048963377,2.420690886,31.31439684,3.708484724,32.23425348,32.218226,3312.482885,normal,none
2024-01-01 00:16:40+00:00,2.663776156,2.013488202,1.601396721,31.14035298,3.693522837,32.39972011,31.10820113,3298.264678,normal,none
2024-01-01 00:16:50+00:00,2.98310362,2.005113788,2.505455456,31.50745549,3.833090383,32.2239656,32.39100373,3315.371419,normal,none
2024-01-01 00:17:00+00:00,2.71850264,2.168055323,1.872558236,31.33665034,3.452273327,32.63366981,30.89014123,3309.271454,normal,none
2024-01-01 00:17:10+00:00,3.054137831,1.932909869,1.572979334,31.42399384,3.734479273,32.50842025,32.1264019,3300.198494,normal,none
2024-01-01 00:17:20+00:00,2.578613841,2.184444752,1.508315833,31.4942498,3.397609347,31.76396002,31.28647622,3298.745183,normal,none
2024-01-01 00:17:30+00:00,2.746802821,1.981929241,2.318837364,31.44559645,3.832643827,32.57938643,31.74837576,3313.081515,normal,none
2024-01-01 00:17:40+00:00,2.651070197,2.249573411,1.903668926,31.25377587,3.602784002,32.76819838,32.02858717,3293.839479,normal,none
2024-01-01 00:17:50+00:00,2.799050665,2.122874815,1.652209455,31.30855849,3.746062387,32.67293467,31.84879414,3313.738381,normal,none
2024-01-01 00:18:00+00:00,3.012379697,2.245263386,1.715052703,31.35569126,3.710544454,32.8689839,31.90842384,3318.957327,normal,none
2024-01-01 00:18:10+00:00,2.508003483,2.408152216,1.908083001,31.4029491,3.715046091,32.59993979,31.43204206,3348.930923,normal,none
2024-01-01 00:18:20+00:00,2.996023148,2.651137109,1.763355636,31.51564595,3.685470034,32.69918995,32.73228594,3344.298627,normal,none
2024-01-01 00:18:30+00:00,2.957295382,2.211874398,1.810895317,31.42311202,3.639982766,32.71648631,31.77943871,3373.998046,normal,none
2024-01-01 00:18:40+00:00,2.722716208,2.277065505,2.242253415,31.35517069,3.597276393,32.76462853,31.68453429,3303.123115,normal,none
2024-01-01 00:18:50+00:00,2.609040934,2.166416337,1.483999139,31.54723328,3.807325321,32.52874955,32.23662748,3334.440137,normal,none
2024-01-01 00:19:00+00:00,2.927064342,2.223340441,1.867691864,31.30778689,3.610075882,33.18188152,32.11481598,3366.988023,normal,none
2024-01-01 00:19:10+00:00,2.760475769,2.097267386,1.813460708,31.40452065,3.383325671,33.09521928,32.68627964,3350.661002,normal,none
2024-01-01 00:19:20+00:00,2.986491955,2.458797133,1.686620992,31.46299229,3.872845364,32.61361876,32.18501298,3343.612232,normal,none
2024-01-01 00:19:30+00:00,2.895902176,2.300969626,2.097582416,31.50140737,3.812957756,32.48849641,32.54226077,3332.083581,normal,none
2024-01-01 00:19:40+00:00,3.310503335,2.687434269,1.407340533,31.50934962,3.639317024,32.40707334,32.76759009,3367.340694,normal,none
2024-01-01 00:19:50+00:00,2.909937296,2.507251423,1.276593639,31.44699229,3.487340865,32.97846946,33.01397412,3359.939436,normal,none
2024-01-01 00:20:00+00:00,2.754165324,2.272591413,1.876329734,31.48862507,3.545887673,33.05480855,32.48576221,3352.158472,normal,none
2024-01-01 00:20:10+00:00,2.966548582,2.34638544,1.809988775,31.53879523,3.604000361,33.027282,32.08916066,3382.029709,normal,none
2024-01-01 00:20:20+00:00,3.003769509,2.261926705,1.427612619,31.54980444,3.785503364,33.08859102,32.48118152,3409.332987,normal,none
2024-01-01 00:20:30+00:00,3.142712685,2.58672715,1.354305123,31.66749527,3.402451109,32.82037872,33.25416582,3349.606789,normal,none
2024-01-01 00:20:40+00:00,3.085929626,2.13611706,2.341028853,31.35087701,3.731363144,32.43654613,33.05406434,3381.859157,normal,none
2024-01-01 00:20:50+00:00,3.06924199,2.201001885,1.910005628,31.57684369,3.677653147,32.82568304,32.89882533,3375.629847,normal,none
2024-01-01 00:21:00+00:00,3.169771648,2.379887987,1.800443052,31.39131137,3.943072199,33.46349941,33.06296917,3388.60126,normal,none
2024-01-01 00:21:10+00:00,2.791630426,2.569357006,2.413627391,31.39122522,3.897650571,33.05979579,32.95420057,3404.707167,normal,none
2024-01-01 00:21:20+00:00,2.774795176,2.732025262,2.102415362,31.49656393,3.55061286,33.07489047,33.48711668,3409.491749,normal,none
2024-01-01 00:21:30+00:00,2.845236925,2.643369429,2.2424053,31.45201086,3.427009035,33.22965511,33.32012211,3373.895525,normal,none
2024-01-01 00:21:40+00:00,2.874725148,2.435071063,1.583662617,31.41504953,3.564867759,32.739346,33.19134741,3353.379223,normal,none
2024-01-01 00:21:50+00:00,2.760349554,2.479415573,1.407845049,31.41810637,3.946663651,33.09479367,33.60738371,3387.331432,normal,none
2024-01-01 00:22:00+00:00,3.13174756,2.646589584,1.932050798,31.50715548,3.711493166,33.20245951,33.88534585,3390.16517,normal,none
2024-01-01 00:22:10+00:00,2.877858253,2.286699535,1.854727382,31.72397279,3.840272011,32.69010468,32.95697038,3339.535091,normal,none
2024-01-01 00:22:20+00:00,2.768057437,2.274929457,2.157545687,31.34818509,3.637205579,33.13386177,33.08617938,3417.512585,normal,none
2024-01-01 00:22:30+00:00,2.868985358,2.632377157,1.438589377,31.66928762,3.789871609,33.40599364,34.36865811,3389.550124,normal,none
2024-01-01 00:22:40+00:00,3.059209755,2.293297937,1.918907514,31.4543053,3.525093829,32.97807883,33.86161131,3401.659429,normal,none
2024-01-01 00:22:50+00:00,3.153104186,2.447246919,2.015954554,31.37596926,3.800925065,32.53461447,34.27584228,3393.915502,normal,none
2024-01-01 00:23:00+00:00,3.389506652,2.43819314,2.036060336,31.25003296,3.493719849,33.10260783,33.96955745,3403.833556,normal,none
2024-01-01 00:23:10+00:00,3.530742384,2.552999824,1.675329068,31.49193805,3.481556234,32.7397562,33.87700042,3436.244322,normal,none
2024-01-01 00:23:20+00:00,3.132729338,2.668069381,1.88894282,31.31233797,4.038741316,32.98953217,32.84305401,3415.112446,normal,none
2024-01-01 00:23:30+00:00,2.767655403,2.648489861,1.594942875,31.5635997,3.68890535,32.7289618,33.3364074,3458.366149,normal,none
2024-01-01 00:23:40+00:00,2.561040479,2.459936422,1.755272666,31.58081878,3.703319315,33.02300237,34.08433277,3431.2492,normal,none
2024-01-01 00:23:50+00:00,3.00093518,2.390411471,1.47389932,31.36413511,3.369949781,33.26341007,33.50284399,3435.329393,normal,none
2024-01-01 00:24:00+00:00,2.789696345,2.43971365,1.479547508,31.60217685,3.834861309,32.96827003,33.8279734,3419.79517,normal,none
2024-01-01 00:24:10+00:00,2.832713742,2.32597779,1.650042575,31.40834955,3.792353144,32.47385282,34.45901119,3425.426873,normal,none
2024-01-01 00:24:20+00:00,2.915853466,2.400473449,1.583864226,31.25224037,3.709322014,33.07483146,34.08693634,3449.82207,normal,none
2024-01-01 00:24:30+00:00,2.934895621,2.811047351,1.493239606,31.27757313,3.86726182,33.00462926,34.21531504,3455.476461,normal,none
2024-01-01 00:24:40+00:00,3.227196081,2.518145041,1.402094163,31.52507297,3.863307823,32.90239989,34.6408665,3439.827334,normal,none
2024-01-01 00:24:50+00:00,2.99236623,2.589592471,2.210904861,31.4999107,3.865597592,33.13524247,34.70033137,3448.151052,normal,none
2024-01-01 00:25:00+00:00,2.887979824,2.426383366,1.595534169,31.33622231,3.366957472,32.74765688,34.23359885,3436.837705,normal,none
2024-01-01 00:25:10+00:00,2.724665737,2.651264991,1.774195495,31.54052187,3.533817058,32.75317445,34.75470875,3446.614877,normal,none
2024-01-01 00:25:20+00:00,2.578588447,2.577850972,1.23274662,31.57948157,3.980411392,32.5593212,33.90527748,3446.503157,normal,none
2024-01-01 00:25:30+00:00,2.837597955,2.611956803,1.941268658,31.55967666,3.657200682,32.92046549,34.47001886,3448.101235,normal,none
2024-01-01 00:25:40+00:00,2.897436658,2.557571659,1.666930484,31.42999788,3.630254263,32.76708791,34.62989518,3469.943532,normal,none
2024-01-01 00:25:50+00:00,3.257703914,2.634093311,1.479706584,31.47252721,3.567315884,32.79836599,34.37235637,3451.520059,normal,none
2024-01-01 00:26:00+00:00,2.867971266,2.68578521,1.52863321,31.55333783,3.535706306,33.06959384,34.40063014,3442.47078,normal,none
2024-01-01 00:26:10+00:00,3.058457704,2.516759342,1.823592736,31.61588698,3.785881119,32.35514463,34.13077136,3452.168032,normal,none
2024-01-01 00:26:20+00:00,2.876102877,2.443303499,0.86126191,31.49903148,3.8391896,32.72714161,34.60000937,3454.361345,normal,none
2024-01-01 00:26:30+00:00,2.613238339,2.620676953,1.409816056,31.4399031,3.822170319,32.91592438,33.95108823,3471.481991,normal,none
2024-01-01 00:26:40+00:00,2.628195311,2.288467013,1.53592534,31.43109891,3.83290302,32.48169777,34.62045023,3454.073693,normal,none
2024-01-01 00:26:50+00:00,2.735566317,2.424811434,1.586880357,31.46897289,3.747822252,32.24886462,34.60652224,3490.171577,normal,none
2024-01-01 00:27:00+00:00,3.34926361,2.386156121,2.233402066,31.3788948,3.634037459,32.0567192,34.95269499,3464.775697,normal,none
2024-01-01 00:27:10+00:00,2.605198785,2.233249044,1.415811567,31.4667369,3.480500524,32.6906519,34.30882424,3504.149189,normal,none
2024-01-01 00:27:20+00:00,2.988073908,2.520479804,1.843343791,31.22899196,3.464896262,32.99338812,34.86949682,3475.73408,normal,none
2024-01-01 00:27:30+00:00,2.606897372,2.395500483,1.957768396,31.34625992,3.833480359,32.32768167,35.08613815,3488.195444,normal,none
2024-01-01 00:27:40+00:00,2.905249026,2.431441974,1.641483955,31.4056352,3.598684616,32.63232057,34.83547798,3500.176864,normal,none
2024-01-01 00:27:50+00:00,2.908146335,2.378538408,1.312152503,31.46696622,3.734445441,31.65540053,35.08326471,3507.20513,normal,none
2024-01-01 00:28:00+00:00,2.749027804,2.429784907,1.100912645,31.46852046,3.627614816,32.54245385,35.0740185,3497.610559,normal,none
2024-01-01 00:28:10+00:00,2.763672092,2.331829283,1.671882497,31.52799327,3.615908937,32.06755594,33.89496467,3540.035574,normal,none
2024-01-01 00:28:20+00:00,2.586084426,2.422533058,1.924567729,31.3312381,3.621783946,32.26187058,34.65495672,3490.191104,normal,none
2024-01-01 00:28:30+00:00,2.852639208,2.441811944,1.506184562,31.23319359,3.675605471,32.25892704,35.99457554,3462.421661,normal,none
2024-01-01 00:28:40+00:00,2.608335133,2.487732406,1.756689353,31.28143015,3.469996692,31.83920595,35.30589631,3494.259312,normal,none
2024-01-01 00:28:50+00:00,2.45925484,2.230166462,2.089456722,31.3561752,3.763422056,33.1333806,34.93927008,3513.337819,normal,none
2024-01-01 00:29:00+00:00,2.38538696,2.635709934,1.639984003,31.46904871,3.501925381,31.97037424,35.28446581,3508.887467,normal,none
2024-01-01 00:29:10+00:00,2.654594862,2.056833063,1.140065617,31.18319691,3.589436398,32.30564711,35.52631153,3481.771762,normal,none
2024-01-01 00:29:20+00:00,3.047676593,2.378301698,1.403022269,31.237509,3.391738396,32.58662314,35.86663248,3497.901006,normal,none
2024-01-01 00:29:30+00:00,2.655444765,2.362156137,1.674683055,31.45965838,3.519469054,32.13790024,35.13668386,3490.79961,normal,none
2024-01-01 00:29:40+00:00,2.623084018,2.470078926,1.319271341,31.33600718,3.461697177,31.63912552,35.213713,3496.151273,normal,none
2024-01-01 00:29:50+00:00,2.670810478,2.174666016,1.71565381,31.16644832,3.613811608,32.03017326,35.22835162,3509.981791,normal,none
2024-01-01 00:30:00+00:00,2.83724274,2.277366963,1.328646004,31.24442768,3.634242833,31.36523211,35.18069035,3523.540441,normal,none
2024-01-01 00:30:10+00:00,2.598901951,2.337973071,1.389823189,31.09060807,3.467771103,31.75350039,35.13636083,3501.987466,normal,none
2024-01-01 00:30:20+00:00,2.51180413,2.513064484,1.17497489,31.28394427,3.86981142,32.30222036,35.58662355,3506.225151,normal,none
2024-01-01 00:30:30+00:00,2.75030662,2.446890243,1.296307131,31.405065,3.665210645,31.34478456,35.34148326,3535.631405,normal,none
2024-01-01 00:30:40+00:00,2.603627818,2.072767048,1.323961766,31.07095913,3.505044217,31.49585334,35.45074257,3506.59556,normal,none
2024-01-01 00:30:50+00:00,2.814711078,2.217602095,0.872284969,31.09091765,3.380935629,32.29954439,36.27348655,3508.031157,normal,none
2024-01-01 00:31:00+00:00,2.582625416,2.374661155,1.006410365,31.22192441,3.502499275,31.58381871,35.26011426,3572.253995,normal,none
2024-01-01 00:31:10+00:00,2.256525549,2.065811937,0.821306968,31.23319418,3.615086322,31.36449595,35.70762842,3520.196563,normal,none
2024-01-01 00:31:20+00:00,2.192930013,2.23204662,0.993470727,31.46044785,3.290526397,31.68178355,35.223196,3496.463415,normal,none
2024-01-01 00:31:30+00:00,2.72902143,2.329180304,0.931072363,31.2576593,3.557258424,31.40494977,36.06736156,3510.487272,normal,none
2024-01-01 00:31:40+00:00,2.682001564,2.315398673,1.358372148,31.13984028,3.338662425,30.61474664,36.16624175,3497.68219,normal,none
2024-01-01 00:31:50+00:00,2.396976497,2.72569658,1.384366422,31.1488424,3.485790341,30.93576964,35.41625855,3572.919366,normal,none
2024-01-01 00:32:00+00:00,2.335722357,2.117158346,1.226431664,31.31261351,3.589791903,31.81774259,35.4990745,3540.728351,normal,none
2024-01-01 00:32:10+00:00,2.62766458,2.299457794,0.828757703,31.06471035,3.498682722,31.33494368,36.13982509,3523.669843,normal,none
2024-01-01 00:32:20+00:00,2.126094192,2.042710615,1.009763335,31.17657689,3.041140033,31.64982431,35.67598674,3557.977436,normal,none
2024-01-01 00:32:30+00:00,2.158272153,2.305697898,0.674164806,31.17030345,3.119976144,30.85142172,36.45669509,3583.214142,normal,none
2024-01-01 00:32:40+00:00,2.445759223,2.38696173,0.949717224,30.96377712,3.488221294,30.97456189,35.45816315,3547.879578,normal,none
2024-01-01 00:32:50+00:00,2.219769174,2.120208687,1.154066775,31.22132063,3.003381312,30.9186801,36.34585424,3586.150669,normal,none
2024-01-01 00:33:00+00:00,2.205619117,2.201665609,1.242828279,31.2130566,3.475396686,30.73862964,36.77454447,3548.989989,normal,none
2024-01-01 00:33:10+00:00,2.248948649,2.009818769,1.062772504,30.85542803,3.587461077,30.9214058,36.21497965,3534.435706,normal,none
2024-01-01 00:33:20+00:00,2.187270347,1.865250055,1.218492492,30.99471855,3.484361333,30.52322721,35.82346341,3596.340543,normal,none
2024-01-01 00:33:30+00:00,2.482586154,2.177896395,0.928047033,30.89494803,3.299626038,31.14588487,35.66684765,3548.038171,normal,none
2024-01-01 00:33:40+00:00,2.176396604,2.02212216,0.858349153,31.10927289,3.391195001,30.88967877,35.90786841,3553.239172,normal,none
2024-01-01 00:33:50+00:00,2.281380956,1.763425982,1.080106977,30.98728807,3.36282161,30.49821764,36.45101578,3587.623976,normal,none
2024-01-01 00:34:00+00:00,1.767850415,2.411492905,1.047290356,31.06011606,3.138779066,30.51724279,35.49228895,3569.696306,normal,none
2024-01-01 00:34:10+00:00,2.123222274,1.928388245,0.703105497,31.01018749,3.520332114,30.39793119,36.05213372,3568.989874,normal,none
2024-01-01 00:34:20+00:00,1.807241155,2.018521677,0.936933402,30.93704715,3.593236099,29.86893216,36.25754913,3568.156268,normal,none
2024-01-01 00:34:30+00:00,1.679166421,2.295728695,0.829541969,31.02872852,3.540219374,30.05513278,36.81738719,3562.228129,normal,none
2024-01-01 00:34:40+00:00,1.846544453,2.054318681,0.359944513,31.00600632,3.14348416,30.22965413,36.87752991,3581.259617,normal,none
2024-01-01 00:34:50+00:00,1.837349379,1.977193154,0.831500547,30.89635874,3.362387758,30.14727322,36.16064152,3589.5014,normal,none
2024-01-01 00:35:00+00:00,2.110879731,1.748929387,0.397608463,31.01544677,3.594647692,30.39033441,35.83901719,3577.484026,normal,none
2024-01-01 00:35:10+00:00,1.678186374,1.783697009,0.710487229,30.90157691,3.450364521,30.21152306,36.37348345,3595.360088,normal,none
2024-01-01 00:35:20+00:00,1.798310132,1.953112108,0.222835104,30.86549358,3.424021299,29.84823937,36.34013996,3594.328125,normal,none
2024-01-01 00:35:30+00:00,1.644700977,2.014430577,0.410654936,30.80653758,2.997895951,29.66409948,36.87385038,3595.985344,normal,none
2024-01-01 00:35:40+00:00,1.766764951,1.90404409,0.591808954,31.09719008,3.272859169,30.14878632,36.1758569,3584.683555,normal,none
2024-01-01 00:35:50+00:00,1.994219294,1.834001168,0.928317567,30.80308933,3.391776423,29.84999294,35.95831555,3585.043769,normal,none
2024-01-01 00:36:00+00:00,1.858709846,1.804070344,0.410071641,31.03756993,3.374277095,29.43327239,36.3554844,3601.991763,normal,none
2024-01-01 00:36:10+00:00,2.004426738,1.493289286,0.290620865,30.83001684,3.249297812,29.30277422,36.27991783,3572.663346,normal,none
2024-01-01 00:36:20+00:00,1.63247422,1.911098414,0.636443691,30.90674792,3.427507649,29.33196426,36.23100079,3656.692448,normal,none
2024-01-01 00:36:30+00:00,1.46272528,1.838322732,0.461366643,31.03377061,2.903961046,29.52184027,36.11018455,3550.405265,normal,none
2024-01-01 00:36:40+00:00,1.595467257,2.143642396,0.792280172,30.86718282,3.280954643,29.95339117,35.93993236,3591.525636,normal,none
2024-01-01 00:36:50+00:00,1.619214565,1.875328677,0.15780657,30.65084649,3.254831849,29.22530687,36.81585268,3615.055232,normal,none
2024-01-01 00:37:00+00:00,1.542925934,1.638512413,0.511291,30.65718107,3.295693004,28.99192556,36.61060339,3621.348946,normal,none
2024-01-01 00:37:10+00:00,1.368484054,1.847316681,1.086763763,30.85503349,3.355833373,29.7797425,36.18450844,3591.964077,normal,none
2024-01-01 00:37:20+00:00,1.545130069,1.664880269,0.398228796,30.7438095,3.002141006,28.97222088,36.85524631,3597.863178,normal,none
2024-01-01 00:37:30+00:00,1.565926427,1.829557678,0.355724663,30.87766539,3.329773105,28.77878303,35.89157216,3613.839545,normal,none
2024-01-01 00:37:40+00:00,1.923735253,1.644886231,-0.016500307,30.72573526,3.163549602,28.82106324,36.44205574,3587.703738,normal,none
2024-01-01 00:37:50+00:00,1.78159706,1.503974602,0.093923239,30.79188975,3.060369173,28.80160406,36.74618497,3592.761265,normal,none
2024-01-01 00:38:00+00:00,1.187847849,1.405338268,0.431755595,30.71797024,2.861798634,29.23039984,37.04646563,3636.295172,normal,none
2024-01-01 00:38:10+00:00,1.275667907,1.675848033,0.163324715,30.61082005,3.090318134,28.14460487,36.46583485,3637.00339,normal,none
2024-01-01 00:38:20+00:00,1.063470396,1.864816009,0.488844386,30.75203147,3.051266928,28.8175578,37.03226067,3622.911692,normal,none
2024-01-01 00:38:30+00:00,1.157851269,1.522065476,0.530034255,30.77464773,3.165260405,28.57182458,36.56033866,3640.040616,normal,none
2024-01-01 00:38:40+00:00,1.364603314,1.714523299,-0.028727471,30.74439388,2.956144481,28.30078171,36.97417432,3628.456829,normal,none
2024-01-01 00:38:50+00:00,1.510187796,1.676274587,0.469209781,30.79419611,3.083898264,28.26655943,37.37147617,3613.001067,normal,none
2024-01-01 00:39:00+00:00,1.175658049,1.591392196,-0.187699008,30.6429814,2.91716355,28.1866657,36.32858802,3607.222422,normal,none
2024-01-01 00:39:10+00:00,0.987760548,1.422554556,0.033603637,30.47174463,3.212444738,28.18214534,36.86270407,3644.79025,normal,none
2024-01-01 00:39:20+00:00,0.770995119,1.513726705,0.274569128,30.36484512,3.181355311,27.91149735,36.95506502,3620.738228,normal,none
2024-01-01 00:39:30+00:00,1.086825602,1.644161129,0.476376335,30.47225892,2.9100084,27.94471659,36.15713203,3652.255958,normal,none
2024-01-01 00:39:40+00:00,0.878198513,1.48120545,-0.092276744,30.55949064,3.02386406,27.70771353,36.96356707,3631.838835,normal,none
2024-01-01 00:39:50+00:00,0.880406809,1.579761904,0.042215089,30.40971729,3.111797667,28.45355455,36.59760737,3665.793432,normal,none
2024-01-01 00:40:00+00:00,0.827690309,1.313751639,0.045612284,30.34614658,2.940866396,28.08795619,36.38214359,3622.557615,normal,none
2024-01-01 00:40:10+00:00,1.011459863,1.388169877,0.21542524,30.39835785,2.737471166,27.74993074,36.603297,3620.745256,normal,none
2024-01-01 00:40:20+00:00,0.604476081,1.282804722,0.250577075,30.50594211,3.009856413,27.47682472,36.66373243,3649.491415,normal,none
2024-01-01 00:40:30+00:00,0.637652719,1.414078938,-0.067345676,30.33455984,2.700221374,27.67797282,37.12880498,3640.334541,normal,none
2024-01-01 00:40:40+00:00,1.305064166,1.452060703,0.295403331,30.54419568,2.850658827,27.42606665,36.79852358,3651.983335,normal,none
2024-01-01 00:40:50+00:00,0.660628487,1.014048782,0.286750855,30.5315305,2.761327027,27.30839577,37.85174105,3649.278433,normal,none
2024-01-01 00:41:00+00:00,0.606526372,1.26578249,0.397478261,30.52822275,2.950972662,27.13166413,36.63987563,3642.316093,normal,none
2024-01-01 00:41:10+00:00,1.050679216,1.277475664,0.106527341,30.50620597,2.737917383,27.25410006,36.99953977,3649.058013,normal,none
2024-01-01 00:41:20+00:00,1.305996372,1.025412673,-0.054260866,30.61485873,3.015125721,27.46157272,36.86535184,3612.468372,normal,none
2024-01-01 00:41:30+00:00,0.39306017,1.351130306,-0.197742319,30.46777816,2.79456982,27.03572441,36.35455922,3687.871941,normal,none
2024-01-01 00:41:40+00:00,0.455628079,1.083816824,-0.460929242,30.31599122,2.750333386,26.75306806,37.47571943,3646.871384,normal,none
2024-01-01 00:41:50+00:00,0.699594233,1.180629371,-0.306966539,30.36532974,2.852533629,26.6978146,37.0240786,3670.204571,normal,none
2024-01-01 00:42:00+00:00,1.036177993,1.457345968,-0.078256106,30.50262196,2.533889575,26.77230677,36.60024939,3621.604714,normal,none
2024-01-01 00:42:10+00:00,0.394555995,1.308439103,-0.204534307,30.14548546,3.01064877,26.39540214,37.15466655,3647.214091,normal,none
2024-01-01 00:42:20+00:00,0.447572715,1.270131585,-0.099737542,30.4273979,2.682565246,26.21806915,37.32736278,3671.705528,normal,none
2024-01-01 00:42:30+00:00,0.629365007,1.09580422,-0.603654678,30.25191154,2.685331551,26.68014733,36.53784141,3704.559976,normal,none
2024-01-01 00:42:40+00:00,0.630030662,1.092545096,-0.332569419,30.20920899,2.601422885,26.72088534,36.93609199,3678.923143,normal,none
2024-01-01 00:42:50+00:00,0.384681331,1.330051897,0.184657581,30.10990018,2.799930299,26.81269679,37.37132814,3682.75566,normal,none
2024-01-01 00:43:00+00:00,0.393199962,1.046825208,-0.146474056,30.06375258,2.758966133,26.29212441,36.99754533,3663.47086,normal,none
2024-01-01 00:43:10+00:00,0.105226911,0.89010955,-0.23565881,30.25305108,2.469945626,26.01156396,37.28579031,3674.778317,normal,none
2024-01-01 00:43:20+00:00,0.302520013,0.733121032,-0.311505496,30.34986889,2.640581252,26.13794536,36.89203763,3672.618993,normal,none
2024-01-01 00:43:30+00:00,0.300570282,1.100743569,-0.455534178,30.08155395,2.530714041,25.55506735,36.31603801,3684.384582,normal,none
2024-01-01 00:43:40+00:00,0.352928365,0.870979161,-0.854141976,30.29746743,2.839836058,25.94258709,36.86590796,3704.744126,normal,none
2024-01-01 00:43:50+00:00,0.143785235,0.668014603,-0.327293059,29.97997739,2.762248678,25.93855803,36.85288294,3674.50773,normal,none
2024-01-01 00:44:00+00:00,0.251456582,0.931311033,-1.100875034,29.99376544,2.959319768,25.81504457,36.96967232,3683.638626,normal,none
2024-01-01 00:44:10+00:00,0.402555438,0.69206129,-0.527032821,30.15634217,2.595795192,25.96259515,36.81278771,3676.867791,normal,none
2024-01-01 00:44:20+00:00,0.136487646,0.910849133,-0.645423383,30.11189706,2.795750263,25.25750799,37.01343078,3681.180376,normal,none
2024-01-01 00:44:30+00:00,0.229692284,0.795305626,-0.705275637,30.091981,2.732352721,25.11423008,36.86314825,3710.619033,normal,none
2024-01-01 00:44:40+00:00,0.016847459,0.735879867,0.015801595,30.11253928,2.627695684,25.18472891,37.38832089,3698.423316,normal,none
2024-01-01 00:44:50+00:00,0.028018951,0.910021632,-0.157805695,30.15705847,2.597970636,24.73193848,37.31213898,3697.542036,normal,none
2024-01-01 00:45:00+00:00,-0.144667914,0.629159749,-0.327324754,29.92808026,2.437389328,25.17241301,36.56972821,3690.050477,normal,none
2024-01-01 00:45:10+00:00,-0.037832278,0.53269627,-0.793844308,29.9249843,2.745855623,25.11908921,37.50372284,3676.915886,normal,none
2024-01-01 00:45:20+00:00,-0.003201418,0.582907514,-0.141162087,29.83886327,2.425733909,24.936166,36.72859375,3709.626451,normal,none
2024-01-01 00:45:30+00:00,0.386920338,0.806526478,-0.596547258,30.20307936,2.457825886,24.84861485,36.54026816,3713.995493,normal,none
2024-01-01 00:45:40+00:00,0.151920812,0.597138089,-0.948958227,29.87763537,2.580566709,24.95353963,37.30898058,3716.407071,normal,none
2024-01-01 00:45:50+00:00,-0.058713942,0.767199893,-0.770640023,29.86909803,2.230649583,24.72024588,36.73080067,3699.933099,normal,none
2024-01-01 00:46:00+00:00,-0.342966197,0.757251645,-0.483145441,30.04512392,2.399087568,24.26780864,37.02821291,3686.270088,normal,none
2024-01-01 00:46:10+00:00,-0.597277973,0.406804335,-0.866812391,30.04123998,2.442386096,23.47946169,36.48026453,3716.097507,normal,none
2024-01-01 00:46:20+00:00,-0.028080099,0.013417956,-0.763628721,29.86358044,2.443742484,24.2004294,36.85833919,3726.28007,normal,none
2024-01-01 00:46:30+00:00,-0.264067204,0.720656667,-0.704766774,29.81638668,2.241309606,24.24605268,36.9324547,3722.961376,normal,none
2024-01-01 00:46:40+00:00,-0.248139132,0.359526502,-1.113751576,29.81061865,2.633101442,24.10203557,36.77404106,3692.04802,normal,none
2024-01-01 00:46:50+00:00,-0.785643746,0.257751871,-0.825690745,29.77600274,2.205103451,23.94196134,36.75665112,3716.582692,normal,none
2024-01-01 00:47:00+00:00,-0.245467352,0.304293668,-1.120086511,29.75824398,2.125850137,23.71284514,36.96993083,3671.629143,normal,none
2024-01-01 00:47:10+00:00,-0.370112938,0.242996292,-0.662086324,29.61766835,2.260671974,23.49035371,37.35582824,3738.774032,normal,none
2024-01-01 00:47:20+00:00,-0.649195289,0.514443817,-1.110544627,29.89741204,2.459868699,23.42072602,36.56176395,3716.710411,normal,none
2024-01-01 00:47:30+00:00,-0.598478647,0.333558988,-0.80718237,29.70258093,2.354351143,23.67422976,35.96725861,3718.738877,normal,none
2024-01-01 00:47:40+00:00,-0.502777752,0.457737658,-1.264645813,29.88709512,2.434615355,23.89700915,37.42750412,3747.096184,normal,none
2024-01-01 00:47:50+00:00,-0.5026515,0.325207724,-1.25459879,29.69233799,2.370342101,23.05940754,36.6034437,3705.784395,normal,none
2024-01-01 00:48:00+00:00,-0.709962396,0.254933962,-1.282203271,29.6758193,2.365610027,23.26721491,36.78016112,3721.275309,normal,none
2024-01-01 00:48:10+00:00,-0.697971515,0.174926152,-1.056905797,29.85884437,2.156020368,23.4921196,36.73420665,3703.162663,normal,none
2024-01-01 00:48:20+00:00,-0.833037751,0.200618786,-0.954724536,29.6413831,2.235549013,23.02834601,36.433784,3691.744698,normal,none
2024-01-01 00:48:30+00:00,-0.616844708,0.259573633,-0.973499194,29.59727028,1.962946003,23.24089597,36.77342856,3728.643331,normal,none
2024-01-01 00:48:40+00:00,-0.417083382,0.319951346,-1.536206267,29.63743549,2.177368291,23.1991818,36.87512267,3729.194776,normal,none
2024-01-01 00:48:50+00:00,-1.260757598,0.03314086,-1.137737489,29.73998389,2.381237392,23.08190594,37.13646695,3683.294453,normal,none
2024-01-01 00:49:00+00:00,-0.840855078,0.109784058,-1.268415721,29.70033608,2.173179273,22.63238869,36.71825724,3741.599679,normal,none
2024-01-01 00:49:10+00:00,-0.819592571,0.13901577,-1.008744266,29.67869716,2.18268968,23.0388955,35.90129987,3727.486992,normal,none
2024-01-01 00:49:20+00:00,-0.823825553,-0.004115062,-1.257442795,29.49581292,1.873860749,22.56154151,36.31145563,3744.681326,normal,none
2024-01-01 00:49:30+00:00,-1.01400033,-0.179384937,-1.193167248,29.73888692,2.431672828,22.40511992,37.35561831,3735.494504,normal,none
2024-01-01 00:49:40+00:00,-1.321680021,-0.154642872,-1.384401426,29.5052699,1.923130614,22.55649183,36.43049945,3752.977974,normal,none
2024-01-01 00:49:50+00:00,-0.924884819,-0.133030892,-0.732353456,29.62594527,2.105756104,22.26757564,37.01578193,3756.545337,normal,none
2024-01-01 00:50:00+00:00,-0.605008524,0.038426755,-1.554987123,29.5495611,2.164233797,22.25025858,36.57324426,3738.559168,normal,none
2024-01-01 00:50:10+00:00,-1.337815605,0.035530546,-1.346139617,29.40485551,2.100545103,22.1143172,37.12742554,3754.272288,normal,none
2024-01-01 00:50:20+00:00,-0.921523006,-0.246761241,-1.127820876,29.53587862,1.925070346,22.04621433,36.71188505,3754.631133,normal,none
2024-01-01 00:50:30+00:00,-1.218469603,-0.24923586,-1.301986079,29.59831734,2.026836029,22.03003678,36.18179136,3714.526623,normal,none
2024-01-01 00:50:40+00:00,-1.200149924,-0.250075435,-1.511829109,29.51009521,1.866249376,21.30284171,36.31718452,3721.741569,normal,none
2024-01-01 00:50:50+00:00,-1.318664749,-0.051710858,-1.689014711,29.5554317,2.343937109,21.7751186,36.1671886,3720.383195,normal,none
2024-01-01 00:51:00+00:00,-1.261765635,-0.321255381,-1.499437684,29.45626001,2.091747088,21.22699989,37.10382915,3755.117156,normal,none
2024-01-01 00:51:10+00:00,-0.988622472,-0.323872657,-1.603500087,29.53102346,1.999902893,21.51715149,36.34109647,3728.742377,normal,none
2024-01-01 00:51:20+00:00,-1.184409092,-0.504692418,-0.890207623,29.38160166,1.750802387,21.62875766,36.56869363,3703.330722,normal,none
2024-01-01 00:51:30+00:00,-1.024152671,-0.281169669,-0.856973909,29.26757064,1.781460487,21.42475315,36.6344195,3725.062782,normal,none
2024-01-01 00:51:40+00:00,-1.114243078,-0.414137634,-1.387154894,29.38112513,1.95709062,21.58693128,36.73048624,3738.664661,normal,none
2024-01-01 00:51:50+00:00,-1.246017098,-0.502835234,-1.710759675,29.42965235,2.241922445,21.36085776,36.45563717,3756.53543,normal,none
2024-01-01 00:52:00+00:00,-1.079226862,-0.375908828,-1.180990642,29.2047789,2.012372428,20.65968566,36.08222524,3774.356348,normal,none
2024-01-01 00:52:10+00:00,-1.362662129,-0.284156169,-1.685726125,29.07114706,2.07307505,21.57285843,36.27090501,3768.570941,normal,none
2024-01-01 00:52:20+00:00,-1.315151718,-0.618692209,-1.59071777,29.04692505,2.030994543,21.07640106,36.20630656,3754.230776,normal,none
2024-01-01 00:52:30+00:00,-1.553820282,-0.622414573,-1.604911845,29.35026014,2.240696288,20.81859322,35.53590458,3735.293253,normal,none
2024-01-01 00:52:40+00:00,-1.596450544,-0.275458181,-1.525087098,29.05246621,1.695003713,20.73470392,36.77531187,3712.730538,normal,none
2024-01-01 00:52:50+00:00,-1.711269918,-0.41211936,-1.644819642,29.2749141,2.024531584,20.27138803,36.79879189,3744.166358,normal,none
2024-01-01 00:53:00+00:00,-1.434519776,-0.497662359,-1.773774742,29.11722573,1.816440499,20.81336494,36.11443932,3749.212925,normal,none
2024-01-01 00:53:10+00:00,-1.810670748,-0.488205304,-1.658652983,29.07649644,1.685615642,20.90098014,37.00581381,3757.896638,normal,none
2024-01-01 00:53:20+00:00,-1.530629934,-0.601387036,-1.190264608,29.0135601,1.923463693,20.33304578,36.41866589,3774.778826,normal,none
2024-01-01 00:53:30+00:00,-1.686847663,-0.695619063,-1.584208427,29.19500472,1.793071467,20.27288945,36.80644869,3771.27354,normal,none
2024-01-01 00:53:40+00:00,-1.395978127,-0.502825546,-1.448854164,29.03308998,1.885871495,20.62265935,36.72802183,3760.757276,normal,none
2024-01-01 00:53:50+00:00,-1.600479813,-0.569684204,-2.146060837,29.1369174,1.475339871,20.80700431,36.37996569,3751.892771,normal,none
2024-01-01 00:54:00+00:00,-1.429278813,-0.499067389,-1.307479588,29.18590842,1.782894328,20.68773986,35.66644101,3730.397281,normal,none
2024-01-01 00:54:10+00:00,-1.635728387,-0.896201661,-1.760120306,29.14590522,1.681801606,20.54746651,36.53719039,3745.809274,normal,none
2024-01-01 00:54:20+00:00,-2.133901451,-0.61027003,-1.416897525,29.18293764,1.728164982,20.74265558,36.58656689,3743.497949,normal,none
2024-01-01 00:54:30+00:00,-1.910080817,-0.752192144,-1.556546723,29.20535943,1.625234604,20.38136212,36.11945813,3815.594672,normal,none
2024-01-01 00:54:40+00:00,-2.085754029,-0.874836045,-1.724952176,28.98347589,1.78741055,20.36446724,36.44452469,3804.402486,normal,none
2024-01-01 00:54:50+00:00,-1.904324197,-0.796088845,-1.992037526,29.17322393,1.738294633,19.936697,36.23765583,3740.301462,normal,none
2024-01-01 00:55:00+00:00,-1.6390056,-0.804882071,-1.109836274,29.17439128,1.732549329,19.75433215,35.8663733,3774.19353,normal,none
2024-01-01 00:55:10+00:00,-1.83764381,-0.812697229,-1.488097595,29.04633821,1.384087998,20.20644816,36.19079638,3740.205693,normal,none
2024-01-01 00:55:20+00:00,-2.173346601,-0.969657531,-1.393859733,29.00547829,1.716534558,19.47624459,35.9364957,3772.577249,normal,none
2024-01-01 00:55:30+00:00,-2.194145577,-0.771439958,-1.214755628,29.16180385,1.539350262,19.76955922,36.41093792,3759.255733,normal,none
2024-01-01 00:55:40+00:00,-2.088948811,-0.863360788,-1.555876876,28.8771002,1.435228114,19.44660562,35.90791939,3767.004312,normal,none
2024-01-01 00:55:50+00:00,-2.357346551,-1.161527347,-1.264683811,28.96917406,1.611490665,19.72544404,35.85097343,3791.691493,normal,none
2024-01-01 00:56:00+00:00,-2.154216636,-1.107463378,-1.809510204,28.99456338,1.579848198,19.49327828,35.42004992,3778.925583,normal,none
2024-01-01 00:56:10+00:00,-2.091772653,-0.9714486,-1.510749557,28.90655632,1.69322053,19.41634817,37.06782688,3789.752726,normal,none
2024-01-01 00:56:20+00:00,-1.848532122,-1.011767365,-1.886803375,28.97173927,1.620269922,19.27834745,35.81848051,3783.224617,normal,none
2024-01-01 00:56:30+00:00,-1.9600821,-1.282880302,-1.92485417,28.90898571,1.458507614,19.49604363,35.60027704,3759.266818,normal,none
2024-01-01 00:56:40+00:00,-2.627433677,-1.036284517,-1.686120439,28.94382668,1.563782294,19.36324814,36.24373453,3748.399686,normal,none
2024-01-01 00:56:50+00:00,-2.11743043,-1.203948187,-1.9994853,29.02455183,1.293798801,18.68695203,36.1271491,3769.519293,normal,none
2024-01-01 00:57:00+00:00,-2.117387453,-0.959712001,-1.591230072,28.90295542,1.728839,18.9755646,36.11946105,3770.332061,normal,none
2024-01-01 00:57:10+00:00,-2.17973642,-1.41928869,-1.809460445,29.13105043,1.804065039,18.85606115,36.1882096,3766.547161,normal,none
2024-01-01 00:57:20+00:00,-1.98195029,-1.217244138,-2.145739771,28.7611935,1.836620745,19.01300141,36.26364982,3763.63902,normal,none
2024-01-01 00:57:30+00:00,-2.778461553,-1.345097081,-1.881908787,28.99170113,1.413148493,18.71300435,35.40299229,3779.740289,normal,none
2024-01-01 00:57:40+00:00,-2.436514646,-1.370525955,-1.835634019,28.94482032,1.666421675,19.15732207,35.89171974,3805.563793,normal,none
2024-01-01 00:57:50+00:00,-2.150242789,-1.412115767,-1.566214604,28.83646649,1.668931363,18.69636895,35.18554203,3737.834536,normal,none
2024-01-01 00:58:00+00:00,-2.632420231,-0.899904748,-1.708345616,28.92653534,1.415643064,19.06371627,35.72688289,3755.736696,normal,none
2024-01-01 00:58:10+00:00,-2.137304562,-1.220805335,-1.414732758,28.61912243,1.483910742,18.43327322,36.00248415,3786.509308,normal,none
2024-01-01 00:58:20+00:00,-2.375468769,-1.411306355,-1.670566069,28.81422735,1.554975795,18.66332086,35.45820021,3744.734579,normal,none
2024-01-01 00:58:30+00:00,-2.282908561,-1.692038145,-1.930504736,28.68097122,1.56682644,18.27496282,36.54317093,3753.601671,normal,none
2024-01-01 00:58:40+00:00,-2.546986596,-1.742358453,-1.777132198,28.6772084,1.534531111,18.6323599,35.7688046,3825.397303,normal,none
2024-01-01 00:58:50+00:00,-2.314965571,-1.520449911,-1.861372145,28.79654209,1.557147569,17.9892951,34.93785982,3794.994086,normal,none
2024-01-01 00:59:00+00:00,-2.262677303,-1.524582548,-1.710435401,28.66795398,1.433855553,17.83506471,35.93685419,3837.693119,normal,none
2024-01-01 00:59:10+00:00,-2.445063031,-1.358911074,-1.746807561,28.49805525,1.741650831,18.09846436,36.52411508,3750.777935,normal,none
2024-01-01 00:59:20+00:00,-2.493538679,-1.734907566,-1.98449529,28.78393627,1.398831716,18.41647362,34.68869146,3827.307892,normal,none
2024-01-01 00:59:30+00:00,-2.492108697,-1.522864503,-1.767110978,28.74621315,1.479917192,17.88660882,35.84764852,3759.988177,normal,none
2024-01-01 00:59:40+00:00,-2.724770381,-1.287532447,-1.674320214,28.7294946,1.439812298,18.33782612,35.01336436,3804.71373,normal,none
2024-01-01 00:59:50+00:00,-2.614198485,-1.21853208,-2.137662308,28.73340522,1.432838815,17.95276159,35.39470123,3743.800097,normal,none
2024-01-01 01:00:00+00:00,-2.603423957,-1.828805805,-1.766258062,28.65207544,1.289137685,17.54577529,34.88627109,3793.635383,normal,none
2024-01-01 01:00:10+00:00,-2.445156211,-1.624090535,-2.14700603,28.77860162,1.320503802,18.27275054,35.59536657,3795.629604,normal,none
2024-01-01 01:00:20+00:00,-2.402701386,-1.697929994,-1.552583691,28.92299717,1.819395349,18.15023468,35.11696344,3779.830929,normal,none
2024-01-01 01:00:30+00:00,-2.857709473,-1.618591001,-1.69839987,28.70546246,1.210307955,18.00311474,35.71863869,3761.556043,normal,none
2024-01-01 01:00:40+00:00,-2.774405931,-1.870171219,-1.412551729,28.91957473,1.431103516,17.92493056,34.83977441,3784.231069,normal,none
2024-01-01 01:00:50+00:00,-2.365202146,-1.401087299,-2.073025238,28.6719705,1.494997708,17.76505027,35.18681248,3795.180846,normal,none
2024-01-01 01:01:00+00:00,-2.942433921,-1.609391955,-1.488232494,28.72505804,1.519737355,17.57060781,34.17420891,3767.8021,normal,none
2024-01-01 01:01:10+00:00,-2.946451704,-1.774291667,-1.578376204,28.47777584,1.412990581,18.222413,36.26843368,3787.159188,normal,none
2024-01-01 01:01:20+00:00,-2.643068037,-1.549469622,-1.762710112,28.60349324,1.696397916,17.76518458,35.79215865,3790.50127,normal,none
2024-01-01 01:01:30+00:00,-2.536488247,-1.699491671,-1.917458832,28.53284821,1.453167223,17.78880347,35.95857402,3801.222312,normal,none
2024-01-01 01:01:40+00:00,-2.75989695,-1.823111812,-2.088054528,28.92045936,1.558889351,17.5210624,35.61924906,3760.85304,normal,none
2024-01-01 01:01:50+00:00,-2.588000555,-1.782525184,-2.13808012,28.5110198,1.495526145,17.7491101,34.7709963,3781.169317,normal,none
2024-01-01 01:02:00+00:00,-2.628767426,-2.009794953,-1.970670654,28.70917569,1.559811397,18.02096184,35.02030214,3797.120404,normal,none
2024-01-01 01:02:10+00:00,-2.660036916,-1.854249141,-2.032797605,28.51519019,1.359219502,17.6794532,34.97888393,3785.8714,normal,none
2024-01-01 01:02:20+00:00,-2.664257963,-1.395336612,-1.275000611,28.63872903,1.402329469,17.72023607,35.07353739,3772.305882,normal,none
2024-01-01 01:02:30+00:00,-2.240613473,-1.815679359,-2.174383046,28.49180199,1.39886499,17.77503663,34.40506922,3813.378486,normal,none
2024-01-01 01:02:40+00:00,-2.861053476,-1.866811162,-1.750121702,28.74410061,1.326510038,17.68799162,34.30992728,3814.26724,normal,none
2024-01-01 01:02:50+00:00,-3.281865556,-1.903771733,-1.636627311,28.36382832,1.382959082,17.77581248,34.24273679,3810.466491,normal,none
2024-01-01 01:03:00+00:00,-2.590827577,-1.767252378,-1.688216406,28.54646789,1.098542373,17.41690588,34.48925834,3788.307689,normal,none
2024-01-01 01:03:10+00:00,-2.958104714,-2.116735069,-1.615278413,28.35856249,1.343833033,17.51302029,34.61415504,3791.828954,normal,none
2024-01-01 01:03:20+00:00,-2.86123966,-2.146988153,-1.577138689,28.51363125,1.48290555,17.3985745,34.41722414,3821.214194,normal,none
2024-01-01 01:03:30+00:00,-2.679475958,-1.970176896,-1.82923781,28.61291844,1.216074056,17.59447708,34.66240601,3812.555188,normal,none
2024-01-01 01:03:40+00:00,-3.207882238,-1.596036462,-1.835346153,28.45954286,1.25356212,17.13116883,34.06642562,3822.090352,normal,none
2024-01-01 01:03:50+00:00,-3.210145676,-1.682984395,-1.796323236,28.43490285,1.572700754,17.44014122,34.24186353,3798.657844,normal,none
2024-01-01 01:04:00+00:00,-3.175494636,-2.074237648,-1.384788027,28.58343225,1.514143272,18.00956347,34.12967774,3809.56587,normal,none
2024-01-01 01:04:10+00:00,-3.02486747,-2.108264789,-1.092851667,28.72492695,1.27577051,17.35157424,34.73549534,3810.954975,normal,none
2024-01-01 01:04:20+00:00,-2.784862437,-2.251498703,-2.072028994,28.49903586,1.388868163,16.77023189,34.36213974,3826.714689,normal,none
2024-01-01 01:04:30+00:00,-2.853302524,-1.957747239,-2.198261855,28.38271019,1.282493086,17.07120865,34.44956412,3752.382282,normal,none
2024-01-01 01:04:40+00:00,-2.860473972,-2.020471088,-1.543546653,28.49159504,1.544855946,17.35931929,33.87238697,3800.687223,normal,none
2024-01-01 01:04:50+00:00,-3.237303475,-1.855144215,-1.487116104,28.5135779,1.253870874,16.96627507,34.30338409,3817.506808,normal,none
2024-01-01 01:05:00+00:00,-3.435840603,-1.988673972,-1.200755528,28.62247217,1.235486933,16.82247355,33.85896088,3822.197889,normal,none
2024-01-01 01:05:10+00:00,-2.966357283,-2.098405589,-1.550516652,28.52876458,1.525630232,16.67186468,33.81547493,3789.757841,normal,none
2024-01-01 01:05:20+00:00,-3.125085764,-1.937026538,-1.393412238,28.3759283,1.178461479,17.06879217,34.30999402,3806.739226,normal,none
2024-01-01 01:05:30+00:00,-2.951093185,-2.163561153,-1.335629892,28.6245075,1.241679693,17.56254482,33.81443467,3813.808113,normal,none
2024-01-01 01:05:40+00:00,-2.79538426,-2.04060378,-1.314310939,28.60137947,1.323410723,16.90225066,33.90873077,3824.268307,normal,none
2024-01-01 01:05:50+00:00,-2.96166177,-2.27293244,-1.491282532,28.61319909,1.445159301,17.34789184,33.829938,3806.544005,normal,none
2024-01-01 01:06:00+00:00,-2.820678757,-2.132513082,-2.071922739,28.49458412,1.11515394,16.96653988,33.5414728,3804.642149,normal,none
2024-01-01 01:06:10+00:00,-2.891114481,-2.129403984,-1.631238946,28.53300998,1.194702075,16.89356079,33.65698734,3794.235469,normal,none
2024-01-01 01:06:20+00:00,-2.970656625,-2.164822001,-1.640276814,28.37400993,1.293885408,17.12851419,33.61722561,3822.080499,normal,none
2024-01-01 01:06:30+00:00,-3.172806504,-2.09724015,-1.615209385,28.47820286,1.445081807,16.60469687,33.63001879,3824.658558,normal,none
2024-01-01 01:06:40+00:00,-3.022033258,-2.526033053,-1.61121366,28.54754864,1.327048332,17.4758564,32.95534532,3820.614876,normal,none
2024-01-01 01:06:50+00:00,-2.937795261,-2.425631275,-1.250612535,28.4313835,1.31630729,17.21885979,33.39250894,3814.791113,normal,none
2024-01-01 01:07:00+00:00,-2.852953723,-2.25403422,-1.857375746,28.47151272,1.335294952,17.28044464,34.00122087,3804.84465,normal,none
2024-01-01 01:07:10+00:00,-3.026441038,-2.425405337,-1.42504627,28.48504909,1.058887007,16.95017641,33.79962329,3788.256373,normal,none
2024-01-01 01:07:20+00:00,-2.885080253,-2.395541342,-1.555611199,28.39331853,1.220507779,17.14983618,33.40535035,3785.242297,normal,none
2024-01-01 01:07:30+00:00,-3.113869107,-2.348916673,-1.791126317,28.49105488,1.502634745,17.23259389,33.02719341,3820.59693,normal,none
2024-01-01 01:07:40+00:00,-3.069838189,-2.174069762,-1.833572824,28.4093311,1.037296093,16.88486647,33.50066808,3822.673984,normal,none
2024-01-01 01:07:50+00:00,-2.793026447,-2.303025986,-1.841456038,28.64000718,1.141864844,16.76886331,33.72387823,3804.812787,normal,none
2024-01-01 01:08:00+00:00,-3.373608427,-1.970388094,-1.501758088,28.26316259,1.210203299,16.69077927,33.85486001,3804.777056,normal,none
2024-01-01 01:08:10+00:00,-3.350953062,-2.267449218,-1.554321599,28.54572917,1.224144162,16.91663031,33.10639919,3804.101933,normal,none
2024-01-01 01:08:20+00:00,-3.224014385,-2.423856183,-1.676896864,28.49031338,1.599550642,17.13182304,32.75345595,3823.833776,normal,none
2024-01-01 01:08:30+00:00,-3.429498648,-2.345396341,-1.903744613,28.58835593,1.189755754,17.04021296,33.4425526,3814.941717,normal,none
2024-01-01 01:08:40+00:00,-3.058532851,-2.297160276,-1.298268687,28.36607268,1.137956761,16.87025825,33.29936127,3791.019538,normal,none
2024-01-01 01:08:50+00:00,-2.856285044,-2.269720487,-1.548110992,28.49608146,1.366124129,17.26322487,32.96833351,3809.751631,normal,none
2024-01-01 01:09:00+00:00,-3.055285311,-2.384455618,-1.583309383,28.2512709,1.178793773,16.85319533,32.78028093,3767.86668,normal,none
2024-01-01 01:09:10+00:00,-2.996522854,-2.632226919,-1.809521021,28.53344267,1.446664333,16.90971552,32.43388996,3787.049808,normal,none
2024-01-01 01:09:20+00:00,-2.630753521,-2.561366088,-1.485896788,28.43363347,1.366199119,17.37835763,33.20450936,3764.290798,normal,none
2024-01-01 01:09:30+00:00,-2.714072711,-2.519854122,-1.242260119,28.54458319,1.345394405,17.2794219,33.25569642,3782.0095,normal,none
2024-01-01 01:09:40+00:00,-2.90022334,-2.723432276,-1.434395958,28.48642478,1.042133227,16.68955642,32.72631202,3783.682655,normal,none
2024-01-01 01:09:50+00:00,-2.721964623,-2.064620661,-1.736470448,28.46812454,1.348924826,16.74895272,33.38800658,3757.204745,normal,none
2024-01-01 01:10:00+00:00,-2.92780794,-2.420169583,-1.410716029,28.56313012,1.341926582,16.72680748,32.86363181,3822.077255,normal,none
2024-01-01 01:10:10+00:00,-3.199167624,-2.478267662,-1.183574049,28.57288,1.313914894,17.16745602,32.56454768,3788.308344,normal,none
2024-01-01 01:10:20+00:00,-3.079543357,-2.671941517,-1.351084247,28.74940224,1.101021855,17.54100406,32.09406468,3791.803038,normal,none
2024-01-01 01:10:30+00:00,-3.181412255,-2.248597168,-1.358851886,28.57062193,1.329587073,17.67499351,31.84941096,3780.952886,normal,none
2024-01-01 01:10:40+00:00,-3.167187191,-2.527252319,-1.361418016,28.38602592,1.409753064,17.38657788,32.3282525,3809.170728,normal,none
2024-01-01 01:10:50+00:00,-2.937088623,-2.594394417,-1.536051181,28.65044866,1.328854459,17.86493635,32.60402061,3825.278543,normal,none
2024-01-01 01:11:00+00:00,-2.733338109,-2.547222304,-1.462187855,28.58975091,1.256737943,17.21901999,33.36675234,3807.799041,normal,none
2024-01-01 01:11:10+00:00,-2.610297546,-2.470661733,-1.664598161,28.5282551,1.512759997,17.6454842,32.40903819,3803.988256,normal,none
2024-01-01 01:11:20+00:00,-3.194679864,-2.349409206,-0.9477136,28.64214532,1.653381689,17.15843428,32.4486392,3757.320128,normal,none
2024-01-01 01:11:30+00:00,-2.828153284,-2.225213494,-1.008639847,28.58488055,1.48333221,16.85728629,31.98925834,3794.508416,normal,none
2024-01-01 01:11:40+00:00,-3.084575967,-2.319046362,-1.115236621,28.61203008,1.399407909,17.32965798,32.1982774,3809.128718,normal,none
2024-01-01 01:11:50+00:00,-2.795607198,-2.477624783,-1.165135785,28.54147523,1.304897814,17.36048416,32.05394167,3819.933505,normal,none
2024-01-01 01:12:00+00:00,-2.920764395,-2.301541958,-1.005161425,28.65216212,1.338853214,18.06803215,31.57306361,3807.787203,normal,none
2024-01-01 01:12:10+00:00,-3.223629385,-2.536715348,-1.285864622,28.7435708,1.095832503,17.46555351,32.50965091,3836.95781,normal,none
2024-01-01 01:12:20+00:00,-2.696544487,-2.838357624,-1.138048149,28.38549563,1.303846047,17.19237416,31.89388511,3780.528169,normal,none
2024-01-01 01:12:30+00:00,-3.004576329,-2.582228638,-1.199436865,28.74461983,1.509809938,17.78726892,32.28602791,3780.038703,normal,none
2024-01-01 01:12:40+00:00,-2.916108824,-2.643308573,-0.54364214,28.53688816,1.416689646,17.29293539,31.86196895,3801.848703,normal,none
2024-01-01 01:12:50+00:00,-2.964256289,-2.559298907,-0.82889298,28.57328107,1.265298575,17.56936045,31.62834047,3819.468892,normal,none
2024-01-01 01:13:00+00:00,-2.988868585,-2.582996772,-1.122921949,28.80329353,1.229723147,17.88676488,31.37894509,3822.200722,normal,none
2024-01-01 01:13:10+00:00,-2.682524592,-2.547330938,-0.75435499,28.33214475,1.403949071,17.35462445,31.56450519,3752.42154,normal,none
2024-01-01 01:13:20+00:00,-2.82499781,-2.336728691,-0.732644644,28.76353662,1.180388149,18.07208927,32.20225183,3794.792622,normal,none
2024-01-01 01:13:30+00:00,-2.723757272,-2.290545901,-1.272659054,28.79077052,1.246271253,18.05065993,31.14154459,3811.242504,normal,none
