timestamp,roll_deg,pitch_deg,yaw_deg,battery_voltage_V,battery_current_A,battery_temp_C,payload_temp_C,reaction_wheel_rpm
2024-01-01 00:00:00+00:00,0.0609,0.0264,-0.4146,29.8989,2.365,25.2309,25.3131,2963.79
2024-01-01 00:00:10+00:00,-0.1731,0.1613,0.2461,30.0127,2.3252,24.5399,24.9453,3016.24
2024-01-01 00:00:20+00:00,0.2199,-0.168,0.032,29.9003,2.5778,25.1143,25.7507,3012.69
2024-01-01 00:00:30+00:00,0.2928,0.0365,-0.0802,29.9808,2.5649,24.952,24.8057,2996.67
2024-01-01 00:00:40+00:00,-0.2506,0.2301,0.0303,30.0454,2.2221,26.2313,24.6069,2989.3
2024-01-01 00:00:50+00:00,-0.086,0.142,0.3755,30.045,2.3745,25.164,24.5774,3022.28
2024-01-01 00:01:00+00:00,0.2348,0.3787,0.3223,30.1773,2.622,25.1089,25.7368,3009.25
2024-01-01 00:01:10+00:00,0.1808,-0.0514,0.1307,30.0483,2.5868,24.8198,25.2101,3037.54
2024-01-01 00:01:20+00:00,0.2755,-0.0422,-0.0989,29.8924,2.5514,25.4327,25.5022,3013.3
2024-01-01 00:01:30+00:00,0.143,0.3531,-0.0582,29.9882,2.7163,25.8731,26.0658,3019.42
2024-01-01 00:01:40+00:00,0.5242,0.3938,0.4203,30.1724,2.4229,26.2549,25.8292,3053.2
2024-01-01 00:01:50+00:00,0.5385,0.2612,-0.0643,30.1328,2.5639,25.7001,25.293,3013.57
2024-01-01 00:02:00+00:00,0.4307,0.3765,0.2486,30.0851,2.7447,26.4648,26.4868,3008.11
2024-01-01 00:02:10+00:00,0.6775,0.4545,0.9714,30.4219,2.5834,26.1864,25.7903,3021.62
2024-01-01 00:02:20+00:00,0.58,0.2468,0.4389,30.3261,2.7415,26.1518,25.9511,3048.26
2024-01-01 00:02:30+00:00,0.3491,0.289,0.5324,30.2546,2.5364,26.441,25.7607,3084.74
2024-01-01 00:02:40+00:00,0.629,0.4496,0.1044,30.301,2.5985,26.906,25.6691,3052.66
2024-01-01 00:02:50+00:00,0.3978,0.5827,0.0856,30.2683,2.4685,26.5875,26.277,3035.27
2024-01-01 00:03:00+00:00,0.7994,0.2982,0.6141,30.1865,2.4409,26.3308,25.6778,3039.23
2024-01-01 00:03:10+00:00,0.6479,0.4694,0.3671,30.432,2.6917,26.8815,26.2905,3067.11
2024-01-01 00:03:20+00:00,0.6549,0.4883,0.7537,30.4311,2.8442,26.9674,27.0273,3027.33
2024-01-01 00:03:30+00:00,0.5896,0.6135,0.5185,30.1651,2.7731,26.8783,26.7629,3027.45
2024-01-01 00:03:40+00:00,1.0041,0.5752,1.3942,30.4024,2.9779,27.332,26.6129,3072.1
2024-01-01 00:03:50+00:00,0.7624,0.5204,0.4093,30.4303,2.7584,26.4287,26.1616,3088.96
2024-01-01 00:04:00+00:00,0.7412,0.8152,0.6469,30.3813,2.5127,27.3122,26.6458,3092.56
2024-01-01 00:04:10+00:00,0.79,0.5725,0.3732,30.6399,2.8958,27.5297,26.4208,3084.37
2024-01-01 00:04:20+00:00,1.0003,0.6351,0.8767,30.6458,2.6957,26.9488,27.3851,3104.48
2024-01-01 00:04:30+00:00,1.0001,0.4656,0.7508,30.4258,2.8897,27.0272,26.6876,3079.85
2024-01-01 00:04:40+00:00,1.0427,0.6226,0.4222,30.4578,2.5413,27.8599,26.6317,3079.13
2024-01-01 00:04:50+00:00,1.0794,0.8323,0.6048,30.4626,2.856,28.0008,26.9279,3088.76
2024-01-01 00:05:00+00:00,1.4544,0.8282,1.0487,30.4519,3.0158,28.1441,26.7711,3098.78
2024-01-01 00:05:10+00:00,0.9775,0.8951,1.0402,30.4373,3.0106,27.6155,27.2468,3173.77
2024-01-01 00:05:20+00:00,0.9889,0.9128,0.395,30.5964,2.8989,27.9707,27.9496,3095.1
2024-01-01 00:05:30+00:00,0.9611,1.1682,0.6534,30.7581,2.9418,28.0968,27.2926,3105.7
2024-01-01 00:05:40+00:00,1.2793,0.7677,1.2463,30.7331,2.8879,27.5708,26.9891,3139.94
2024-01-01 00:05:50+00:00,1.414,0.6616,0.7702,30.673,2.9306,28.2158,27.3634,3119.35
2024-01-01 00:06:00+00:00,1.1974,0.7716,0.8787,30.3694,3.0821,28.2955,26.9866,3077.75
2024-01-01 00:06:10+00:00,1.084,0.8481,1.1103,30.4396,2.8883,28.5623,28.7126,3148.79
2024-01-01 00:06:20+00:00,1.1188,0.8319,0.5411,30.7482,2.9157,28.2516,28.3517,3123.96
2024-01-01 00:06:30+00:00,1.4452,1.0164,0.6597,30.8195,2.7891,28.8821,28.1982,3063.79
2024-01-01 00:06:40+00:00,1.495,1.2144,0.834,30.7286,3.1356,28.6145,28.068,3115.48
2024-01-01 00:06:50+00:00,1.4861,1.2815,1.2362,30.6582,3.003,29.1862,27.7691,3112.27
2024-01-01 00:07:00+00:00,1.2753,1.1501,1.21,30.8394,2.8739,28.9798,27.8457,3120.25
2024-01-01 00:07:10+00:00,1.4856,1.4195,1.1548,30.7949,3.199,28.921,27.8826,3132.1
2024-01-01 00:07:20+00:00,1.493,1.0685,0.9598,30.8486,3.0727,28.5645,28.9891,3150.31
2024-01-01 00:07:30+00:00,1.5437,0.9007,1.2965,30.5643,2.9805,28.604,28.029,3164.26
2024-01-01 00:07:40+00:00,1.7044,1.327,0.9953,30.7994,3.2378,29.5606,27.9476,3168.05
2024-01-01 00:07:50+00:00,1.6048,0.9165,1.1972,30.9575,3.0646,29.4234,28.1987,3177.08
2024-01-01 00:08:00+00:00,1.7255,1.1022,1.2997,30.8476,2.8923,29.1538,28.5144,3144.07
2024-01-01 00:08:10+00:00,1.6328,1.3165,1.5147,30.9045,3.2833,29.193,26.9818,3109.33
2024-01-01 00:08:20+00:00,1.7064,1.2461,1.0951,30.8279,3.0252,29.4626,28.599,3104.11
2024-01-01 00:08:30+00:00,1.8038,1.2556,1.037,30.8494,3.6159,29.07,27.4915,3172.7
2024-01-01 00:08:40+00:00,1.415,1.1297,1.4698,30.9935,3.1075,29.4101,29.164,3159.05
2024-01-01 00:08:50+00:00,1.6711,1.3277,1.5071,30.8005,2.8835,29.8104,27.9521,3193.24
2024-01-01 00:09:00+00:00,1.6693,1.5022,1.0462,30.8049,3.4603,29.9262,28.3869,3175.6
2024-01-01 00:09:10+00:00,1.6637,1.3768,0.9235,30.8479,3.2,29.6668,28.0077,3134.28
2024-01-01 00:09:20+00:00,1.7643,1.2713,1.522,30.912,3.258,30.3317,29.5611,3160.31
2024-01-01 00:09:30+00:00,2.146,1.2305,0.8242,30.7625,3.2879,30.2388,28.9019,3183.98
2024-01-01 00:09:40+00:00,1.7012,1.3179,0.8285,31.0103,3.0375,29.7677,29.8634,3156.18
2024-01-01 00:09:50+00:00,2.0951,1.5197,1.2016,30.9343,2.9274,29.6879,29.8337,3211.58
2024-01-01 00:10:00+00:00,1.5918,1.5338,1.286,31.0496,3.5563,30.3207,29.604,3175.68
2024-01-01 00:10:10+00:00,1.888,1.3834,1.0119,30.7656,3.0393,30.0782,28.6091,3181.07
2024-01-01 00:10:20+00:00,2.0139,1.1929,1.3487,31.0764,3.5301,30.0915,29.3014,3158.44
2024-01-01 00:10:30+00:00,2.1246,1.6084,1.3759,31.1374,3.3738,30.4199,29.8469,3234.29
2024-01-01 00:10:40+00:00,2.1754,1.4314,1.205,31.0605,3.3314,30.6377,29.5211,3192.64
2024-01-01 00:10:50+00:00,2.2174,1.69,1.8491,31.0324,3.2451,30.7275,29.2825,3205.36
2024-01-01 00:11:00+00:00,2.0142,1.4936,1.4636,31.1285,3.6718,30.5738,29.6359,3187.1
2024-01-01 00:11:10+00:00,2.0165,1.479,1.6535,31.1816,3.2315,29.9357,29.739,3197.66
2024-01-01 00:11:20+00:00,2.3052,1.6701,1.0223,31.1191,3.2456,30.976,29.0335,3214.7
2024-01-01 00:11:30+00:00,2.1198,2.0206,1.0348,31.1388,3.456,30.5129,29.462,3220.22
2024-01-01 00:11:40+00:00,1.927,1.7989,1.5306,31.2568,3.2638,30.9115,30.0142,3226.06
2024-01-01 00:11:50+00:00,1.9793,1.7264,1.8935,31.1791,3.2225,30.8458,30.1667,3237.75
2024-01-01 00:12:00+00:00,2.0455,1.779,1.1913,31.0347,3.3751,31.6184,29.9782,3234.37
2024-01-01 00:12:10+00:00,2.3521,1.4816,1.4934,31.253,3.4962,31.6244,29.7814,3234.4
2024-01-01 00:12:20+00:00,2.304,1.5947,1.1624,31.1254,3.6842,30.9303,29.9313,3213.31
2024-01-01 00:12:30+00:00,2.4362,1.4051,1.3048,31.1524,3.7238,30.725,29.7697,3224.93
2024-01-01 00:12:40+00:00,2.235,2.0597,1.5457,31.1709,3.1516,30.8078,30.093,3207.86
2024-01-01 00:12:50+00:00,2.3741,2.0475,1.3871,31.2681,3.5854,31.3278,30.5376,3225.38
2024-01-01 00:13:00+00:00,2.4892,1.8954,1.1964,31.3569,3.2901,31.1422,31.2317,3246.88
2024-01-01 00:13:10+00:00,2.3235,1.8746,1.2031,31.1951,3.3061,31.0276,29.8414,3249.33
2024-01-01 00:13:20+00:00,2.4977,1.6392,1.0756,31.3763,3.3737,31.2599,30.8923,3257.51
2024-01-01 00:13:30+00:00,2.2947,1.8565,1.678,31.23,3.3725,31.6075,30.601,3276.64
2024-01-01 00:13:40+00:00,2.3748,2.1754,1.7197,31.3639,3.3106,31.5029,29.8695,3223.9
2024-01-01 00:13:50+00:00,2.3911,1.9433,1.7297,31.2536,3.1303,31.4351,30.5328,3215.77
2024-01-01 00:14:00+00:00,2.2479,1.8557,1.3653,31.1943,3.7041,31.5252,30.5609,3250.79
2024-01-01 00:14:10+00:00,2.6039,1.6932,1.8548,31.4454,3.6296,31.6353,30.6946,3288.48
2024-01-01 00:14:20+00:00,2.4316,2.1803,1.7904,31.2039,3.5,31.8014,31.1757,3290.76
2024-01-01 00:14:30+00:00,2.5466,1.9789,1.6257,31.2066,3.3648,31.8688,31.6077,3268.82
2024-01-01 00:14:40+00:00,2.6586,1.7418,1.5946,31.1556,3.7026,31.3387,31.3967,3262.07
2024-01-01 00:14:50+00:00,2.6698,1.8823,1.4812,31.417,3.515,31.9312,31.0246,3275.93
2024-01-01 00:15:00+00:00,2.7312,1.8448,1.7008,31.4494,3.4453,31.8196,31.1296,3296.02
2024-01-01 00:15:10+00:00,2.5957,2.0319,2.0662,31.345,3.2919,31.6701,31.8919,3260.94
2024-01-01 00:15:20+00:00,2.5476,2.0978,1.9551,31.2178,3.626,31.9076,30.697,3268.02
2024-01-01 00:15:30+00:00,2.6329,2.0059,1.6151,31.3237,3.5017,32.4104,31.6773,3284.26
2024-01-01 00:15:40+00:00,2.3276,2.2125,1.8221,31.3023,3.5975,32.3494,30.7813,3307.63
2024-01-01 00:15:50+00:00,2.3915,2.1221,1.42,31.2374,3.59,32.1782,30.6895,3304.85
2024-01-01 00:16:00+00:00,2.4318,2.2837,1.8856,31.2993,3.6663,31.9212,31.6115,3251.63
2024-01-01 00:16:10+00:00,2.5121,2.0846,1.5027,31.4063,3.6096,31.8228,30.7551,3310.68
2024-01-01 00:16:20+00:00,2.8062,2.6085,1.8901,31.3026,3.5372,31.9875,31.3199,3296.52
2024-01-01 00:16:30+00:00,2.5595,2.0804,2.4666,31.3995,3.6719,32.312,32.0854,3312.42
2024-01-01 00:16:40+00:00,2.679,2.0427,1.5884,31.1997,3.7369,32.3557,31.2286,3298.25
2024-01-01 00:16:50+00:00,3.0281,2.0371,2.4679,31.5521,3.8317,32.1867,32.371,3315.42
2024-01-01 00:17:00+00:00,2.7103,2.172,1.8658,31.3516,3.437,32.6808,30.8073,3309.23
2024-01-01 00:17:10+00:00,2.9419,1.9581,1.5614,31.4842,3.7771,32.5672,32.1858,3300.27
2024-01-01 00:17:20+00:00,2.6202,2.2723,1.5553,31.4223,3.3771,31.6898,31.272,3298.84
2024-01-01 00:17:30+00:00,2.778,1.9542,2.3504,31.4498,3.7723,32.5503,31.8052,3313.03
2024-01-01 00:17:40+00:00,2.6408,2.2759,1.8872,31.3022,3.5362,32.7755,32.0263,3293.82
2024-01-01 00:17:50+00:00,2.7744,2.0603,1.6269,31.345,3.7556,32.6399,31.8839,3313.7
2024-01-01 00:18:00+00:00,3.0212,2.2169,1.7218,31.3528,3.8577,32.7829,31.9505,3318.96
2024-01-01 00:18:10+00:00,2.5183,2.3756,1.8842,31.4344,3.6724,32.5577,31.5295,3348.95
2024-01-01 00:18:20+00:00,2.9609,2.6411,1.778,31.5696,3.6425,32.6443,32.7319,3344.32
2024-01-01 00:18:30+00:00,2.9313,2.1442,1.8699,31.4852,3.6388,32.6768,31.7299,3374.13
2024-01-01 00:18:40+00:00,2.7744,2.2934,2.2298,31.3566,3.5867,32.7705,31.7851,3303.13
2024-01-01 00:18:50+00:00,2.613,2.2172,1.5071,31.4599,3.8296,32.5656,32.2939,3334.37
2024-01-01 00:19:00+00:00,2.9253,2.2049,1.9527,31.4474,3.6482,33.0901,32.1092,3366.96
2024-01-01 00:19:10+00:00,2.8132,2.2374,1.7754,31.4245,3.3414,33.2112,32.7783,3350.6
2024-01-01 00:19:20+00:00,2.9735,2.4773,1.6707,31.462,3.8034,32.646,32.284,3343.54
2024-01-01 00:19:30+00:00,2.9388,2.2893,2.065,31.5436,3.7985,32.4746,32.5514,3332.05
2024-01-01 00:19:40+00:00,3.2619,2.7084,1.4328,31.3988,3.6831,32.4404,32.6518,3367.37
2024-01-01 00:19:50+00:00,2.9003,2.4417,1.2075,31.4395,3.561,32.9833,33.0494,3359.99
2024-01-01 00:20:00+00:00,2.7497,2.2358,1.8558,31.5754,3.5077,33.0548,32.5024,3352.28
2024-01-01 00:20:10+00:00,2.9961,2.34,1.7654,31.527,3.5663,33.0168,32.0981,3381.98
2024-01-01 00:20:20+00:00,3.0097,2.2821,1.4618,31.6108,3.7161,33.0572,32.496,3409.34
2024-01-01 00:20:30+00:00,3.2426,2.5296,1.372,31.629,3.4118,32.7516,33.3276,3349.56
2024-01-01 00:20:40+00:00,3.1425,2.1707,2.2817,31.3517,3.7538,32.3375,33.0645,3381.75
2024-01-01 00:20:50+00:00,3.0511,2.222,1.9139,31.5187,3.7028,32.7967,32.8294,3375.61
2024-01-01 00:21:00+00:00,3.2762,2.3408,1.8019,31.441,3.8865,33.4523,33.054,3388.57
2024-01-01 00:21:10+00:00,2.7493,2.5381,2.3443,31.3736,3.8,33.0448,32.9751,3404.72
2024-01-01 00:21:20+00:00,2.8621,2.6264,2.0492,31.4161,3.5876,33.1008,33.4479,3409.49
2024-01-01 00:21:30+00:00,2.8074,2.6541,2.2339,31.4663,3.4434,33.2519,33.319,3373.8
2024-01-01 00:21:40+00:00,2.917,2.5318,1.4942,31.468,3.5748,32.7344,33.1233,3353.32
2024-01-01 00:21:50+00:00,2.7214,2.4449,1.4821,31.4377,3.9059,33.0584,33.6526,3387.33
2024-01-01 00:22:00+00:00,3.1252,2.5812,1.9377,31.4977,3.7434,33.1488,33.8066,3390.16
2024-01-01 00:22:10+00:00,2.9547,2.2948,1.8838,31.7443,3.7893,32.7181,33.0182,3339.56
2024-01-01 00:22:20+00:00,2.7056,2.194,2.089,31.3274,3.6055,33.1086,33.0753,3417.57
2024-01-01 00:22:30+00:00,2.7969,2.54,1.365,31.6137,3.7727,33.3886,34.4457,3389.5
2024-01-01 00:22:40+00:00,3.0625,2.3273,1.9444,31.4981,3.4719,32.8792,33.7849,3401.65
2024-01-01 00:22:50+00:00,3.1668,2.4717,2.0113,31.4558,3.84,32.4811,34.2512,3393.95
2024-01-01 00:23:00+00:00,3.3975,2.5025,1.9932,31.2973,3.526,33.0469,33.989,3403.88
2024-01-01 00:23:10+00:00,3.5795,2.5246,1.6525,31.5747,3.4025,32.7944,33.8642,3436.23
2024-01-01 00:23:20+00:00,3.0778,2.6306,1.8784,31.3534,4.0373,33.0408,32.8738,3415.05
2024-01-01 00:23:30+00:00,2.7948,2.6169,1.5492,31.5791,3.7173,32.7279,33.2878,3458.44
2024-01-01 00:23:40+00:00,2.5636,2.5233,1.6639,31.6692,3.7121,32.9918,34.0838,3431.24
2024-01-01 00:23:50+00:00,3.0406,2.4295,1.4702,31.3652,3.4143,33.3335,33.5089,3435.33
2024-01-01 00:24:00+00:00,2.821,2.5133,1.5347,31.6086,3.7868,32.9478,33.8584,3419.85
2024-01-01 00:24:10+00:00,2.8966,2.4089,1.6573,31.4924,3.8248,32.4512,34.3284,3425.36
2024-01-01 00:24:20+00:00,2.853,2.4697,1.5877,31.2783,3.6603,33.0473,34.0648,3449.83
2024-01-01 00:24:30+00:00,2.9426,2.8924,1.5134,31.3649,3.8218,32.9281,34.216,3455.54
2024-01-01 00:24:40+00:00,3.1789,2.5273,1.3705,31.5007,3.8619,32.9726,34.6573,3439.74
2024-01-01 00:24:50+00:00,2.9917,2.5675,2.1777,31.5203,3.763,33.1861,34.7423,3448.15
2024-01-01 00:25:00+00:00,2.9227,2.3939,1.554,31.3191,3.3568,32.7209,34.17,3436.81
2024-01-01 00:25:10+00:00,2.741,2.6521,1.7532,31.4773,3.5065,32.7754,34.7468,3446.6
2024-01-01 00:25:20+00:00,2.6066,2.6123,1.2221,31.5531,3.9296,32.5352,33.8973,3446.52
2024-01-01 00:25:30+00:00,2.8372,2.6123,1.9922,31.5671,3.6861,32.8832,34.4165,3448.14
2024-01-01 00:25:40+00:00,2.9162,2.528,1.6852,31.4222,3.6838,32.8554,34.5959,3469.96
2024-01-01 00:25:50+00:00,3.2727,2.6492,1.5228,31.5034,3.5429,32.7064,34.3708,3451.48
2024-01-01 00:26:00+00:00,2.9369,2.6829,1.5151,31.5627,3.5687,32.9865,34.3673,3442.46
2024-01-01 00:26:10+00:00,3.0988,2.5324,1.8311,31.5364,3.8398,32.4283,34.0512,3452.2
2024-01-01 00:26:20+00:00,2.7934,2.4702,0.865,31.5357,3.8821,32.7533,34.5272,3454.41
2024-01-01 00:26:30+00:00,2.6468,2.6188,1.3865,31.4532,3.7731,32.8704,33.9402,3471.49
2024-01-01 00:26:40+00:00,2.6809,2.3459,1.5518,31.4275,3.7323,32.5013,34.5722,3454.03
2024-01-01 00:26:50+00:00,2.7187,2.3705,1.5377,31.4591,3.7395,32.2246,34.6911,3490.22
2024-01-01 00:27:00+00:00,3.2789,2.4666,2.1852,31.3502,3.6307,32.0998,35.0063,3464.84
2024-01-01 00:27:10+00:00,2.6779,2.2094,1.4627,31.5323,3.4563,32.6258,34.2786,3504.12
2024-01-01 00:27:20+00:00,2.9985,2.5906,1.7826,31.2624,3.4194,33.0571,34.9256,3475.75
2024-01-01 00:27:30+00:00,2.6385,2.3176,1.9757,31.3591,3.8248,32.3346,35.0577,3488.29
2024-01-01 00:27:40+00:00,2.9933,2.3866,1.6779,31.3998,3.6178,32.6206,34.8609,3500.09
2024-01-01 00:27:50+00:00,2.8714,2.4203,1.329,31.4442,3.6893,31.7242,35.0882,3507.16
2024-01-01 00:28:00+00:00,2.7502,2.4529,1.1633,31.4565,3.6442,32.5295,35.0564,3497.7
2024-01-01 00:28:10+00:00,2.7601,2.3899,1.6575,31.533,3.6465,32.0556,33.947,3540.06
2024-01-01 00:28:20+00:00,2.6237,2.4255,1.8689,31.3851,3.6536,32.2277,34.657,3490.15
2024-01-01 00:28:30+00:00,2.8299,2.4206,1.5803,31.2985,3.7009,32.332,35.9211,3462.35
2024-01-01 00:28:40+00:00,2.6353,2.3561,1.7382,31.3486,3.4754,31.7718,35.3643,3494.28
2024-01-01 00:28:50+00:00,2.4664,2.3005,2.0635,31.3238,3.762,33.1744,34.8988,3513.3
2024-01-01 00:29:00+00:00,2.4408,2.5718,1.6104,31.4002,3.4679,32.0088,35.3232,3508.93
2024-01-01 00:29:10+00:00,2.7154,2.0868,1.1112,31.2337,3.6083,32.3312,35.4978,3481.89
2024-01-01 00:29:20+00:00,2.9809,2.3641,1.3841,31.315,3.3886,32.5546,35.8663,3497.9
2024-01-01 00:29:30+00:00,2.6808,2.3169,1.6987,31.4867,3.5345,32.1515,35.1303,3490.87
2024-01-01 00:29:40+00:00,2.6085,2.4421,1.2786,31.3341,3.4539,31.6511,35.0834,3496.18
2024-01-01 00:29:50+00:00,2.6725,2.1529,1.7016,31.2024,3.5498,32.0051,35.1581,3509.98
2024-01-01 00:30:00+00:00,2.8593,2.2875,1.2925,31.2651,3.6495,31.3769,35.1637,3523.56
2024-01-01 00:30:10+00:00,2.6243,2.3384,1.3768,31.0669,3.5436,31.7819,35.185,3502.03
2024-01-01 00:30:20+00:00,2.4803,2.5052,1.1892,31.2753,3.8191,32.3363,35.5364,3506.28
2024-01-01 00:30:30+00:00,2.7654,2.3852,1.3003,31.4368,3.637,31.361,35.327,3535.54
2024-01-01 00:30:40+00:00,2.6112,2.1483,1.2968,31.1441,3.4759,31.4873,35.5043,3506.55
2024-01-01 00:30:50+00:00,2.8136,2.2429,0.8246,31.1076,3.4897,32.24,36.3114,3507.99
2024-01-01 00:31:00+00:00,2.5238,2.4388,1.0992,31.1782,3.5515,31.58,35.2122,3572.32
2024-01-01 00:31:10+00:00,2.2225,2.1154,0.884,31.3258,3.5926,31.3117,35.7627,3520.14
2024-01-01 00:31:20+00:00,2.1738,2.2731,1.073,31.3942,3.2939,31.6432,35.206,3496.49
2024-01-01 00:31:30+00:00,2.7572,2.2727,0.9582,31.2583,3.5663,31.3315,36.0629,3510.51
2024-01-01 00:31:40+00:00,2.7511,2.2051,1.3921,31.0746,3.2813,30.6022,36.1712,3497.74
2024-01-01 00:31:50+00:00,2.3495,2.656,1.3768,31.1905,3.5351,30.9528,35.4077,3572.89
2024-01-01 00:32:00+00:00,2.2874,2.1781,1.2428,31.361,3.6106,31.9212,35.5072,3540.74
2024-01-01 00:32:10+00:00,2.6347,2.2956,0.7673,31.1401,3.4819,31.3448,36.0826,3523.64
2024-01-01 00:32:20+00:00,2.099,2.1011,1.041,31.1743,3.0793,31.6269,35.7362,3557.95
2024-01-01 00:32:30+00:00,2.1192,2.2828,0.7099,31.1731,3.1519,30.8196,36.4426,3583.24
2024-01-01 00:32:40+00:00,2.4042,2.3216,0.9908,30.9832,3.4946,31.0516,35.4243,3547.82
2024-01-01 00:32:50+00:00,2.1737,2.09,1.1703,31.2261,3.033,30.9564,36.3648,3586.15
2024-01-01 00:33:00+00:00,2.2284,2.1569,1.2371,31.2001,3.4833,30.781,36.8576,3549
2024-01-01 00:33:10+00:00,2.1732,2.0174,1.0878,30.9036,3.5301,30.9455,36.1476,3534.42
2024-01-01 00:33:20+00:00,2.2496,1.9665,1.2645,30.958,3.5431,30.4846,35.7638,3596.37
2024-01-01 00:33:30+00:00,2.4395,2.2798,0.995,30.982,3.327,31.1176,35.7352,3547.96
2024-01-01 00:33:40+00:00,2.1517,2.0272,0.8517,31.1416,3.4192,30.8298,36.0083,3553.28
2024-01-01 00:33:50+00:00,2.2377,1.7339,1.1083,30.9794,3.3749,30.5716,36.3703,3587.56
2024-01-01 00:34:00+00:00,1.6739,2.3462,1.0962,31.0821,3.1127,30.5973,35.5288,3569.68
2024-01-01 00:34:10+00:00,2.049,1.9463,0.7181,31.0112,3.4352,30.3992,36.0283,3568.94
2024-01-01 00:34:20+00:00,1.8645,2.0147,0.9233,31.0237,3.5218,29.9048,36.2304,3568.22
2024-01-01 00:34:30+00:00,1.7636,2.2826,0.7343,31.0533,3.4064,30.0558,36.8246,3562.15
2024-01-01 00:34:40+00:00,1.8057,1.9997,0.2848,31.0179,3.2171,30.2295,36.9725,3581.24
2024-01-01 00:34:50+00:00,1.8881,1.9808,0.876,30.9756,3.393,30.1074,36.1996,3589.51
2024-01-01 00:35:00+00:00,2.1115,1.8052,0.4212,30.9969,3.466,30.3366,35.833,3577.43
2024-01-01 00:35:10+00:00,1.6362,1.7281,0.8057,30.9724,3.4355,30.2388,36.3561,3595.36
2024-01-01 00:35:20+00:00,1.8805,1.932,0.3184,30.9162,3.4038,29.8304,36.3937,3594.38
2024-01-01 00:35:30+00:00,1.7502,1.9948,0.5008,30.8804,3,29.6382,36.8207,3595.99
2024-01-01 00:35:40+00:00,1.7538,1.9694,0.5508,31.0977,3.2875,30.0781,36.1913,3584.66
2024-01-01 00:35:50+00:00,1.992,1.8344,0.9379,30.8515,3.3134,29.8341,35.9953,3585.01
2024-01-01 00:36:00+00:00,1.871,1.8924,0.4823,31.0184,3.3611,29.5158,36.408,3601.93
2024-01-01 00:36:10+00:00,2.0025,1.5964,0.325,30.799,3.2713,29.2841,36.298,3572.6
2024-01-01 00:36:20+00:00,1.6755,1.9233,0.6628,30.9342,3.4154,29.3477,36.3084,3656.64
2024-01-01 00:36:30+00:00,1.5384,1.8607,0.4953,31.0172,2.8969,29.5911,36.1283,3550.4
2024-01-01 00:36:40+00:00,1.6038,2.1145,0.725,30.7905,3.2432,29.9021,35.9937,3591.53
2024-01-01 00:36:50+00:00,1.6678,1.8013,0.2521,30.7429,3.2196,29.2544,36.7598,3615.07
2024-01-01 00:37:00+00:00,1.6251,1.6403,0.5354,30.752,3.2713,28.9895,36.6407,3621.41
2024-01-01 00:37:10+00:00,1.3432,1.7555,1.0776,30.7781,3.3553,29.8073,36.2328,3591.93
2024-01-01 00:37:20+00:00,1.5482,1.6951,0.3779,30.7973,2.9788,28.9688,36.9008,3597.83
2024-01-01 00:37:30+00:00,1.5456,1.7904,0.4618,30.746,3.3263,28.7618,35.8541,3613.83
2024-01-01 00:37:40+00:00,1.9732,1.71,-0.0228,30.6928,3.2101,28.7969,36.4458,3587.66
2024-01-01 00:37:50+00:00,1.8145,1.4975,0.1564,30.915,3.0476,28.7006,36.7126,3592.76
2024-01-01 00:38:00+00:00,1.2378,1.4216,0.4618,30.6842,2.927,29.1369,37.0867,3636.31
2024-01-01 00:38:10+00:00,1.32,1.6866,0.2415,30.6267,3.0804,28.1712,36.438,3637.08
2024-01-01 00:38:20+00:00,1.0537,1.8346,0.4547,30.7562,3.0814,28.7687,37.1262,3622.93
2024-01-01 00:38:30+00:00,1.197,1.6189,0.3844,30.7422,3.0772,28.5037,36.4317,3640.03
2024-01-01 00:38:40+00:00,1.3468,1.7086,-0.0744,30.7831,2.9194,28.2561,37.0365,3628.43
2024-01-01 00:38:50+00:00,1.4932,1.718,0.4859,30.8188,3.0922,28.2379,37.3959,3613.01
2024-01-01 00:39:00+00:00,1.0744,1.5854,-0.1017,30.6447,2.9273,28.1787,36.3378,3607.24
2024-01-01 00:39:10+00:00,1.0574,1.4024,-0.0054,30.5653,3.1578,28.1951,36.8127,3644.81
2024-01-01 00:39:20+00:00,0.7266,1.5328,0.22,30.3878,3.219,27.9476,36.9823,3620.72
2024-01-01 00:39:30+00:00,1.0913,1.6633,0.5312,30.4681,2.8276,27.9772,36.2818,3652.28
2024-01-01 00:39:40+00:00,0.8789,1.5404,-0.1347,30.5665,2.9455,27.6771,36.9656,3631.86
2024-01-01 00:39:50+00:00,0.9529,1.5516,0.13,30.4113,3.0693,28.478,36.5788,3665.83
2024-01-01 00:40:00+00:00,0.8507,1.3483,0.1088,30.3545,2.9518,28.0389,36.4805,3622.57
2024-01-01 00:40:10+00:00,0.9743,1.3654,0.2109,30.5032,2.6944,27.7951,36.6603,3620.77
2024-01-01 00:40:20+00:00,0.6086,1.356,0.3193,30.5578,3.0138,27.4273,36.6427,3649.51
2024-01-01 00:40:30+00:00,0.6336,1.3439,-0.101,30.4389,2.78,27.7186,37.1725,3640.25
2024-01-01 00:40:40+00:00,1.3196,1.5045,0.2297,30.5366,2.8876,27.4732,36.8626,3651.99
2024-01-01 00:40:50+00:00,0.6029,0.9547,0.286,30.4919,2.6951,27.3301,37.7976,3649.38
2024-01-01 00:41:00+00:00,0.6076,1.2888,0.3762,30.5284,2.95,27.0452,36.6688,3642.33
2024-01-01 00:41:10+00:00,1.1607,1.2495,0.0324,30.614,2.7542,27.1978,37.0823,3649.06
2024-01-01 00:41:20+00:00,1.3406,1.0328,-0.0769,30.6412,2.9389,27.5306,36.8416,3612.42
2024-01-01 00:41:30+00:00,0.4915,1.3163,-0.2581,30.436,2.7581,26.9596,36.4001,3687.78
2024-01-01 00:41:40+00:00,0.6182,1.0836,-0.5274,30.2999,2.7046,26.7658,37.555,3646.91
2024-01-01 00:41:50+00:00,0.7261,1.1155,-0.2553,30.3351,2.825,26.784,36.9746,3670.2
2024-01-01 00:42:00+00:00,0.9695,1.4229,-0.1809,30.4692,2.5883,26.6764,36.6219,3621.62
2024-01-01 00:42:10+00:00,0.3922,1.2735,-0.2594,30.2055,3.0056,26.408,37.1013,3647.22
2024-01-01 00:42:20+00:00,0.5062,1.1845,-0.1057,30.4224,2.75,26.2584,37.3614,3671.68
2024-01-01 00:42:30+00:00,0.6764,1.1316,-0.6417,30.2435,2.6234,26.6272,36.6148,3704.52
2024-01-01 00:42:40+00:00,0.5735,1.0258,-0.3466,30.266,2.6347,26.659,36.9804,3678.92
2024-01-01 00:42:50+00:00,0.3768,1.3264,0.1747,30.1453,2.6835,26.8852,37.3818,3682.76
2024-01-01 00:43:00+00:00,0.3908,1.1227,-0.098,30.0764,2.8164,26.2509,37.0368,3663.49
2024-01-01 00:43:10+00:00,0.1079,0.8656,-0.2156,30.1636,2.519,26.0561,37.1971,3674.69
2024-01-01 00:43:20+00:00,0.3006,0.7436,-0.2948,30.3044,2.584,26.1993,36.8741,3672.64
2024-01-01 00:43:30+00:00,0.2603,1.0142,-0.5065,30.0866,2.618,25.5638,36.3544,3684.39
2024-01-01 00:43:40+00:00,0.3253,0.8962,-0.8762,30.3007,2.8429,25.9364,36.8863,3704.68
2024-01-01 00:43:50+00:00,0.133,0.6655,-0.346,30.0648,2.7475,25.9625,36.7658,3674.48
2024-01-01 00:44:00+00:00,0.3036,0.9193,-1.0948,29.9978,2.8222,25.8653,36.9491,3683.63
2024-01-01 00:44:10+00:00,0.377,0.7898,-0.5865,30.1126,2.5744,25.9653,36.7751,3676.85
2024-01-01 00:44:20+00:00,0.1707,0.8848,-0.5283,30.1377,2.7707,25.1927,37.0649,3681.13
2024-01-01 00:44:30+00:00,0.175,0.8463,-0.6614,30.0712,2.732,25.1315,36.8595,3710.59
2024-01-01 00:44:40+00:00,0.0804,0.6637,-0.0289,30.05,2.6324,25.1216,37.3227,3698.44
2024-01-01 00:44:50+00:00,0.0349,0.8246,-0.1376,30.1777,2.6305,24.7584,37.2461,3697.42
2024-01-01 00:45:00+00:00,-0.1443,0.6296,-0.3574,30.0095,2.4108,25.1615,36.6302,3690.09
2024-01-01 00:45:10+00:00,0.0284,0.614,-0.8688,29.9355,2.7603,25.1095,37.5024,3676.9
2024-01-01 00:45:20+00:00,-0.0893,0.5736,-0.1788,29.8518,2.4353,24.9823,36.7099,3709.63
2024-01-01 00:45:30+00:00,0.3139,0.7975,-0.526,30.075,2.5421,24.7656,36.5484,3714.02
2024-01-01 00:45:40+00:00,0.1751,0.5602,-0.9377,29.8876,2.5457,24.9295,37.4189,3716.39
2024-01-01 00:45:50+00:00,-0.0973,0.7824,-0.7154,29.88,2.2245,24.7074,36.758,3699.97
2024-01-01 00:46:00+00:00,-0.3619,0.8183,-0.5052,30.0006,2.4086,24.2612,37.0318,3686.21
2024-01-01 00:46:10+00:00,-0.4666,0.4141,-0.9157,30.0834,2.4329,23.4641,36.4749,3716.07
2024-01-01 00:46:20+00:00,-0.0406,0.0609,-0.7518,29.8857,2.3715,24.1572,36.8406,3726.33
2024-01-01 00:46:30+00:00,-0.261,0.6298,-0.7287,29.8295,2.3687,24.1755,36.9374,3722.98
2024-01-01 00:46:40+00:00,-0.2523,0.3958,-1.1038,29.8253,2.5846,24.0855,36.8227,3692.04
2024-01-01 00:46:50+00:00,-0.7318,0.2912,-0.9167,29.763,2.2228,23.9251,36.7699,3716.63
2024-01-01 00:47:00+00:00,-0.232,0.3067,-1.126,29.7557,2.1427,23.7256,36.9872,3671.61
2024-01-01 00:47:10+00:00,-0.3612,0.3066,-0.6727,29.7389,2.2312,23.5405,37.3617,3738.74
2024-01-01 00:47:20+00:00,-0.7086,0.5373,-1.1371,29.8478,2.417,23.3927,36.5836,3716.78
2024-01-01 00:47:30+00:00,-0.6152,0.3405,-0.8571,29.7307,2.4179,23.7413,35.9433,3718.75
2024-01-01 00:47:40+00:00,-0.5025,0.4828,-1.2974,29.8583,2.3688,23.8457,37.4439,3747.13
2024-01-01 00:47:50+00:00,-0.5791,0.3381,-1.253,29.6936,2.401,23.0525,36.678,3705.81
2024-01-01 00:48:00+00:00,-0.6822,0.1913,-1.2846,29.6514,2.2889,23.3183,36.705,3721.35
2024-01-01 00:48:10+00:00,-0.6785,0.1527,-1.0809,29.7989,2.1592,23.4824,36.7086,3703.14
2024-01-01 00:48:20+00:00,-0.7422,0.2692,-0.9826,29.6562,2.0815,23.0984,36.3875,3691.79
2024-01-01 00:48:30+00:00,-0.6953,0.2816,-0.9555,29.6245,2.0204,23.2794,36.7526,3728.64
2024-01-01 00:48:40+00:00,-0.4653,0.2817,-1.5086,29.6236,2.1621,23.2979,36.7899,3729.05
2024-01-01 00:48:50+00:00,-1.3066,0.0665,-1.1264,29.75,2.3009,23.0028,37.0668,3683.23
2024-01-01 00:49:00+00:00,-0.8743,0.1056,-1.2903,29.6172,2.2048,22.6462,36.6641,3741.59
2024-01-01 00:49:10+00:00,-0.8251,0.1405,-0.9874,29.6947,2.1593,23.1001,35.8967,3727.45
2024-01-01 00:49:20+00:00,-0.8346,-0.0312,-1.206,29.5296,1.9842,22.5363,36.328,3744.61
2024-01-01 00:49:30+00:00,-1.0014,-0.1702,-1.1772,29.6454,2.5161,22.4476,37.2985,3735.54
2024-01-01 00:49:40+00:00,-1.3115,-0.1474,-1.361,29.5437,1.9921,22.594,36.5051,3753.01
2024-01-01 00:49:50+00:00,-0.9276,-0.089,-0.7611,29.5917,2.1208,22.261,37.0479,3756.55
2024-01-01 00:50:00+00:00,-0.6806,0.02,-1.5305,29.5836,2.24,22.1967,36.5323,3738.56
2024-01-01 00:50:10+00:00,-1.3656,0.0831,-1.3267,29.3764,2.0828,22.0644,37.1305,3754.25
2024-01-01 00:50:20+00:00,-0.9186,-0.3356,-1.2168,29.4615,1.9424,22.0355,36.8323,3754.66
2024-01-01 00:50:30+00:00,-1.1895,-0.2482,-1.3232,29.5338,2.1718,22.0622,36.199,3714.57
2024-01-01 00:50:40+00:00,-1.1684,-0.2386,-1.4679,29.5336,1.8366,21.3252,36.2976,3721.74
2024-01-01 00:50:50+00:00,-1.3988,-0.0921,-1.7461,29.5312,2.286,21.802,36.1562,3720.38
2024-01-01 00:51:00+00:00,-1.2871,-0.3169,-1.4821,29.4004,2.0543,21.2166,37.1028,3755.02
2024-01-01 00:51:10+00:00,-0.992,-0.3284,-1.565,29.528,1.9612,21.5393,36.2195,3728.76
2024-01-01 00:51:20+00:00,-1.1671,-0.502,-0.921,29.2925,1.7741,21.6784,36.5602,3703.4
2024-01-01 00:51:30+00:00,-0.9687,-0.244,-0.79,29.193,1.8012,21.3948,36.6603,3725.01
2024-01-01 00:51:40+00:00,-1.1109,-0.3669,-1.3841,29.299,1.9536,21.6205,36.7653,3738.66
2024-01-01 00:51:50+00:00,-1.2897,-0.467,-1.7375,29.4308,2.2329,21.431,36.4758,3756.61
2024-01-01 00:52:00+00:00,-1.0596,-0.4339,-1.2165,29.1872,1.9716,20.5974,36.0133,3774.38
2024-01-01 00:52:10+00:00,-1.3513,-0.252,-1.6608,29.1334,1.9764,21.5217,36.1437,3768.66
2024-01-01 00:52:20+00:00,-1.3041,-0.5979,-1.5671,29.0931,1.97,21.1558,36.1882,3754.25
2024-01-01 00:52:30+00:00,-1.5593,-0.5994,-1.601,29.3236,2.2546,20.8292,35.5318,3735.22
2024-01-01 00:52:40+00:00,-1.5168,-0.3112,-1.5827,29.0902,1.8217,20.7787,36.7455,3712.72
2024-01-01 00:52:50+00:00,-1.6995,-0.5136,-1.5598,29.2749,2.1108,20.2145,36.7564,3744.11
2024-01-01 00:53:00+00:00,-1.3918,-0.4503,-1.8128,29.1723,1.8043,20.826,36.1064,3749.16
2024-01-01 00:53:10+00:00,-1.8549,-0.5163,-1.673,29.1133,1.7468,20.8774,37.0375,3757.91
2024-01-01 00:53:20+00:00,-1.4921,-0.6075,-1.2553,29.0759,1.8286,20.3999,36.4533,3774.81
2024-01-01 00:53:30+00:00,-1.7157,-0.6801,-1.5312,29.1818,1.8163,20.255,36.8147,3771.34
2024-01-01 00:53:40+00:00,-1.4722,-0.5287,-1.5037,29.0714,1.9017,20.4917,36.7654,3760.77
2024-01-01 00:53:50+00:00,-1.5848,-0.5046,-2.1051,29.132,1.4574,20.7317,36.3804,3751.91
2024-01-01 00:54:00+00:00,-1.3992,-0.5417,-1.3219,29.1585,1.8168,20.625,35.601,3730.39
2024-01-01 00:54:10+00:00,-1.6453,-0.9075,-1.7417,29.1655,1.6936,20.4714,36.4705,3745.79
2024-01-01 00:54:20+00:00,-2.1338,-0.5592,-1.3006,29.1838,1.6637,20.7544,36.5793,3743.44
2024-01-01 00:54:30+00:00,-1.8604,-0.8338,-1.554,29.093,1.5668,20.352,36.0852,3815.52
2024-01-01 00:54:40+00:00,-2.1088,-0.9184,-1.7438,28.9578,1.6955,20.3487,36.3876,3804.49
2024-01-01 00:54:50+00:00,-2.0051,-0.8556,-2.0332,29.0958,1.6619,19.9555,36.2885,3740.32
2024-01-01 00:55:00+00:00,-1.6261,-0.7304,-1.0802,29.1014,1.6647,19.7537,35.895,3774.25
2024-01-01 00:55:10+00:00,-1.8275,-0.7988,-1.433,29.0044,1.4722,20.1271,36.2123,3740.26
2024-01-01 00:55:20+00:00,-2.1211,-0.9429,-1.4277,28.9806,1.7222,19.4222,36.0241,3772.62
2024-01-01 00:55:30+00:00,-2.2101,-0.8035,-1.1981,29.2438,1.5783,19.7741,36.353,3759.2
2024-01-01 00:55:40+00:00,-2.0266,-0.9327,-1.6058,28.8541,1.4415,19.3958,35.9418,3767.02
2024-01-01 00:55:50+00:00,-2.302,-1.064,-1.3326,29.02,1.5943,19.6118,35.8675,3791.73
2024-01-01 00:56:00+00:00,-2.2182,-1.1085,-1.7988,29.0626,1.5503,19.5231,35.4711,3778.97
2024-01-01 00:56:10+00:00,-2.0465,-0.965,-1.503,28.9114,1.6626,19.425,36.9824,3789.74
2024-01-01 00:56:20+00:00,-1.9026,-1.0629,-1.8529,28.9163,1.5623,19.305,35.8921,3783.19
2024-01-01 00:56:30+00:00,-2.0363,-1.2808,-1.829,28.8808,1.4194,19.405,35.5939,3759.28
2024-01-01 00:56:40+00:00,-2.6404,-0.9712,-1.6862,28.909,1.4939,19.3889,36.26,3748.49
2024-01-01 00:56:50+00:00,-2.1451,-1.194,-2.0344,28.987,1.3586,18.6979,36.0655,3769.49
2024-01-01 00:57:00+00:00,-2.215,-0.9067,-1.642,28.8655,1.7788,19.0412,36.1818,3770.21
2024-01-01 00:57:10+00:00,-2.1699,-1.3795,-1.8089,29.1847,1.7936,18.8675,36.1956,3766.53
2024-01-01 00:57:20+00:00,-1.9523,-1.2194,-2.234,28.817,1.8026,18.9901,36.3438,3763.62
2024-01-01 00:57:30+00:00,-2.7108,-1.3205,-1.8575,28.9887,1.4923,18.7468,35.4498,3779.77
2024-01-01 00:57:40+00:00,-2.4386,-1.3848,-1.835,28.8942,1.7664,19.1948,35.9046,3805.57
2024-01-01 00:57:50+00:00,-2.2242,-1.3345,-1.5409,28.8397,1.6241,18.7332,35.1843,3737.84
2024-01-01 00:58:00+00:00,-2.6804,-1.0186,-1.6879,28.9651,1.4311,18.9919,35.6628,3755.67
2024-01-01 00:58:10+00:00,-2.0902,-1.2853,-1.4021,28.6473,1.4516,18.3534,36.023,3786.43
2024-01-01 00:58:20+00:00,-2.3327,-1.448,-1.6384,28.8393,1.5117,18.4988,35.3655,3744.72
2024-01-01 00:58:30+00:00,-2.2577,-1.6259,-1.9111,28.7148,1.5445,18.3435,36.5844,3753.65
2024-01-01 00:58:40+00:00,-2.5616,-1.632,-1.7911,28.7327,1.5755,18.5917,35.6674,3825.47
2024-01-01 00:58:50+00:00,-2.3047,-1.4763,-1.8672,28.718,1.5128,18.0647,34.9038,3795.03
2024-01-01 00:59:00+00:00,-2.2734,-1.5127,-1.6614,28.6601,1.4529,17.8551,35.8775,3837.79
2024-01-01 00:59:10+00:00,-2.4599,-1.473,-1.7715,28.5815,1.7002,18.1284,36.4505,3750.84
2024-01-01 00:59:20+00:00,-2.4786,-1.8017,-1.9463,28.7761,1.4727,18.4337,34.6345,3827.29
2024-01-01 00:59:30+00:00,-2.4901,-1.496,-1.7894,28.7213,1.4567,17.9727,35.7812,3759.95
2024-01-01 00:59:40+00:00,-2.7351,-1.3493,-1.6784,28.6887,1.4424,18.2464,35.0657,3804.65
2024-01-01 00:59:50+00:00,-2.61,-1.2811,-2.0471,28.7857,1.4508,17.9246,35.4054,3743.77
2024-01-01 01:00:00+00:00,-2.6286,-1.8296,-1.7177,28.7462,1.2564,17.5459,34.8686,3793.66
2024-01-01 01:00:10+00:00,-2.5387,-1.6863,-2.1928,28.6656,1.3034,18.2813,35.6986,3795.6
2024-01-01 01:00:20+00:00,-2.4323,-1.7148,-1.5227,28.989,1.814,18.1754,35.1944,3779.93
2024-01-01 01:00:30+00:00,-2.8605,-1.5851,-1.6679,28.7774,1.1929,17.9245,35.7502,3761.56
2024-01-01 01:00:40+00:00,-2.6901,-1.8101,-1.3926,28.912,1.4747,17.9061,34.838,3784.29
2024-01-01 01:00:50+00:00,-2.3846,-1.3948,-2.0791,28.6181,1.479,17.7887,35.1308,3795.19
2024-01-01 01:01:00+00:00,-2.8451,-1.6604,-1.5163,28.6768,1.5734,17.4999,34.2511,3767.84
2024-01-01 01:01:10+00:00,-2.876,-1.705,-1.5651,28.5204,1.4704,18.1611,36.1785,3787.19
2024-01-01 01:01:20+00:00,-2.6858,-1.4671,-1.8437,28.6038,1.6931,17.6998,35.8698,3790.51
2024-01-01 01:01:30+00:00,-2.5718,-1.7276,-1.8911,28.5713,1.4397,17.8001,35.9358,3801.25
2024-01-01 01:01:40+00:00,-2.7524,-1.6842,-2.0667,28.9222,1.6003,17.5046,35.6391,3760.79
2024-01-01 01:01:50+00:00,-2.5025,-1.8757,-2.1301,28.5466,1.5487,17.7508,34.751,3781.16
2024-01-01 01:02:00+00:00,-2.6102,-1.9873,-1.9794,28.5858,1.6187,17.9261,34.9308,3796.98
2024-01-01 01:02:10+00:00,-2.6261,-1.8917,-2.1031,28.4574,1.3859,17.5981,35.0258,3785.9
2024-01-01 01:02:20+00:00,-2.6961,-1.4904,-1.3875,28.6499,1.4369,17.623,35.0195,3772.26
2024-01-01 01:02:30+00:00,-2.3535,-1.7415,-2.159,28.5004,1.317,17.7459,34.3916,3813.31
2024-01-01 01:02:40+00:00,-2.8719,-1.8131,-1.7429,28.6764,1.3916,17.6633,34.3313,3814.32
2024-01-01 01:02:50+00:00,-3.2429,-2.0184,-1.6676,28.4001,1.3954,17.7341,34.2142,3810.35
2024-01-01 01:03:00+00:00,-2.5323,-1.7527,-1.6833,28.5613,1.0471,17.4878,34.5376,3788.3
2024-01-01 01:03:10+00:00,-2.9553,-2.1102,-1.6571,28.3835,1.333,17.4594,34.539,3791.82
2024-01-01 01:03:20+00:00,-2.8524,-2.1586,-1.5274,28.514,1.4839,17.4079,34.4444,3821.21
2024-01-01 01:03:30+00:00,-2.6219,-2.0242,-1.8707,28.5294,1.144,17.5693,34.6841,3812.57
2024-01-01 01:03:40+00:00,-3.2137,-1.6638,-1.7322,28.4935,1.1948,17.1552,33.9883,3822.1
2024-01-01 01:03:50+00:00,-3.1526,-1.6886,-1.8222,28.4989,1.5124,17.4198,34.1572,3798.77
2024-01-01 01:04:00+00:00,-3.2311,-2.0571,-1.4175,28.6417,1.5371,17.9269,34.152,3809.54
2024-01-01 01:04:10+00:00,-3.078,-2.1064,-1.2122,28.7579,1.2392,17.3233,34.7406,3810.88
2024-01-01 01:04:20+00:00,-2.8391,-2.267,-2.0294,28.5704,1.3553,16.8356,34.4485,3826.68
2024-01-01 01:04:30+00:00,-2.8296,-2.0247,-2.2322,28.4468,1.3145,17.0878,34.461,3752.46
2024-01-01 01:04:40+00:00,-2.8862,-2.0274,-1.5753,28.5357,1.4999,17.3422,33.9081,3800.72
2024-01-01 01:04:50+00:00,-3.2307,-1.9482,-1.4429,28.4905,1.2407,16.9371,34.2535,3817.53
2024-01-01 01:05:00+00:00,-3.4164,-1.9448,-1.2138,28.6117,1.2614,16.8282,33.8828,3822.18
2024-01-01 01:05:10+00:00,-2.9494,-2.1256,-1.5109,28.5486,1.517,16.6921,33.8514,3789.77
2024-01-01 01:05:20+00:00,-3.0601,-2.0268,-1.3385,28.3593,1.1632,17.0289,34.25,3806.78
2024-01-01 01:05:30+00:00,-2.8789,-2.2294,-1.2642,28.6244,1.237,17.5614,33.7978,3813.84
2024-01-01 01:05:40+00:00,-2.8351,-2.0576,-1.3045,28.609,1.3298,16.9061,33.9684,3824.36
2024-01-01 01:05:50+00:00,-2.9521,-2.2278,-1.4416,28.6596,1.5367,17.3168,33.8563,3806.51
2024-01-01 01:06:00+00:00,-2.8315,-2.0961,-1.9733,28.4566,1.1276,16.9601,33.448,3804.66
2024-01-01 01:06:10+00:00,-2.9412,-2.1214,-1.6455,28.5366,1.1986,16.9185,33.6399,3794.2
2024-01-01 01:06:20+00:00,-2.884,-2.1807,-1.5588,28.3865,1.3929,17.1816,33.5991,3822.13
2024-01-01 01:06:30+00:00,-3.1336,-2.0845,-1.6489,28.4985,1.415,16.5594,33.6236,3824.66
2024-01-01 01:06:40+00:00,-3.0308,-2.4516,-1.6233,28.5422,1.3338,17.5143,33.0073,3820.72
2024-01-01 01:06:50+00:00,-2.9574,-2.3879,-1.2115,28.438,1.2838,17.1699,33.3887,3814.74
2024-01-01 01:07:00+00:00,-2.8341,-2.2805,-1.7818,28.5351,1.3202,17.3203,33.9968,3804.85
2024-01-01 01:07:10+00:00,-3.0779,-2.4681,-1.3818,28.5172,1.0742,16.9248,33.7584,3788.23
2024-01-01 01:07:20+00:00,-2.8956,-2.324,-1.4912,28.4551,1.3153,17.1495,33.3747,3785.19
2024-01-01 01:07:30+00:00,-3.0532,-2.3303,-1.7732,28.6397,1.5223,17.2798,33.0134,3820.6
2024-01-01 01:07:40+00:00,-3.0233,-2.0885,-1.8162,28.4767,1.1021,16.9733,33.4759,3822.65
2024-01-01 01:07:50+00:00,-2.8333,-2.2742,-1.9604,28.5137,1.1827,16.7402,33.7731,3804.89
2024-01-01 01:08:00+00:00,-3.3968,-2.1515,-1.4014,28.3542,1.2412,16.7219,33.9427,3804.84
2024-01-01 01:08:10+00:00,-3.256,-2.2707,-1.5261,28.5535,1.2512,16.8818,33.0759,3804.17
2024-01-01 01:08:20+00:00,-3.2914,-2.4062,-1.7039,28.4548,1.5782,17.0816,32.8109,3823.82
2024-01-01 01:08:30+00:00,-3.4594,-2.3153,-1.9534,28.5994,1.1631,16.9706,33.3767,3814.91
2024-01-01 01:08:40+00:00,-3.1257,-2.2353,-1.363,28.3739,1.1342,16.8797,33.2764,3791.09
2024-01-01 01:08:50+00:00,-2.8371,-2.1747,-1.501,28.5496,1.4209,17.238,33.0855,3809.79
2024-01-01 01:09:00+00:00,-3.0405,-2.3823,-1.6222,28.29,1.2095,16.9055,32.7755,3767.85
2024-01-01 01:09:10+00:00,-2.9402,-2.6181,-1.6708,28.5717,1.4263,16.8748,32.454,3787.05
2024-01-01 01:09:20+00:00,-2.7576,-2.6369,-1.4752,28.4948,1.2803,17.3473,33.1951,3764.29
2024-01-01 01:09:30+00:00,-2.7053,-2.4362,-1.2836,28.5545,1.3805,17.243,33.2313,3782
2024-01-01 01:09:40+00:00,-2.9796,-2.7457,-1.4688,28.4571,1.0785,16.7238,32.6759,3783.71
2024-01-01 01:09:50+00:00,-2.6896,-2.1332,-1.6685,28.4249,1.3842,16.7067,33.451,3757.16
2024-01-01 01:10:00+00:00,-2.936,-2.3201,-1.3707,28.4793,1.3509,16.7892,32.8079,3822.09
2024-01-01 01:10:10+00:00,-3.1156,-2.5119,-1.0794,28.5451,1.2824,17.129,32.5899,3788.29
2024-01-01 01:10:20+00:00,-3.0604,-2.5896,-1.3151,28.5869,1.1385,17.5095,32.1328,3791.8
2024-01-01 01:10:30+00:00,-3.2306,-2.2753,-1.2922,28.5632,1.3587,17.609,31.8717,3780.83
2024-01-01 01:10:40+00:00,-3.1046,-2.6027,-1.3746,28.4428,1.4378,17.4198,32.2927,3809.14
2024-01-01 01:10:50+00:00,-2.9907,-2.5942,-1.4993,28.7242,1.2527,17.7895,32.5903,3825.21
2024-01-01 01:11:00+00:00,-2.7502,-2.5619,-1.4911,28.5778,1.2589,17.2981,33.3214,3807.8
2024-01-01 01:11:10+00:00,-2.5581,-2.4352,-1.6591,28.4866,1.4582,17.5934,32.3598,3804.05
2024-01-01 01:11:20+00:00,-3.1696,-2.3642,-0.9314,28.5958,1.5992,17.1134,32.5143,3757.33
2024-01-01 01:11:30+00:00,-2.8052,-2.2831,-1.094,28.5837,1.4874,16.8431,31.8909,3794.51
2024-01-01 01:11:40+00:00,-3.0821,-2.3097,-1.1717,28.5455,1.3848,17.2435,32.2494,3809.19
2024-01-01 01:11:50+00:00,-2.7688,-2.4705,-1.1009,28.5388,1.318,17.3258,32.141,3819.92
2024-01-01 01:12:00+00:00,-2.8794,-2.3215,-1.0721,28.6719,1.3546,18.167,31.6752,3807.75
2024-01-01 01:12:10+00:00,-3.2084,-2.5788,-1.3227,28.7517,1.1643,17.4207,32.5321,3837.04
2024-01-01 01:12:20+00:00,-2.6452,-2.7547,-1.2023,28.381,1.3445,17.1458,31.8864,3780.38
2024-01-01 01:12:30+00:00,-2.9401,-2.5853,-1.2212,28.7135,1.5404,17.7719,32.3251,3780.02
2024-01-01 01:12:40+00:00,-2.9137,-2.6083,-0.4563,28.5985,1.3832,17.2869,31.8295,3801.89
2024-01-01 01:12:50+00:00,-3.0084,-2.5847,-0.8105,28.6264,1.2884,17.5912,31.6355,3819.4
2024-01-01 01:13:00+00:00,-2.9124,-2.636,-1.0047,28.7444,1.2797,17.8457,31.3978,3822.23
2024-01-01 01:13:10+00:00,-2.6827,-2.5633,-0.6862,28.3504,1.3879,17.3384,31.5122,3752.35
2024-01-01 01:13:20+00:00,-2.7925,-2.4028,-0.6986,28.7042,1.2129,18.1095,32.18,3794.85
2024-01-01 01:13:30+00:00,-2.6749,-2.2399,-1.3342,28.7579,1.2675,18.0297,31.1762,3811.26
2024-01-01 01:13:40+00:00,-2.6539,-2.7571,-1.0253,28.568,1.6394,17.836,31.7435,3810.27
2024-01-01 01:13:50+00:00,-2.4474,-2.6923,-0.954,28.5049,1.26,18.2948,31.2937,3802.62
2024-01-01 01:14:00+00:00,-2.7649,-2.6184,-0.7772,28.8158,1.3012,17.695,31.5948,3789.16
2024-01-01 01:14:10+00:00,-2.9763,-2.3851,-0.9661,28.4839,1.4713,18.0892,31.3825,3729.69
2024-01-01 01:14:20+00:00,-2.4516,-2.5307,-0.9145,28.7093,1.3677,17.9768,30.7069,3831.03
2024-01-01 01:14:30+00:00,-2.7151,-2.6083,-0.9849,28.7779,1.4538,17.7451,31.2467,3801.65
2024-01-01 01:14:40+00:00,-2.4094,-2.3916,-0.5869,28.7235,1.5765,17.7983,31.9868,3771.26
2024-01-01 01:14:50+00:00,-2.5387,-2.3548,-1.1894,28.7488,1.2218,18.635,31.1833,3781.9
2024-01-01 01:15:00+00:00,-2.6243,-2.5,-0.9147,28.6745,1.5739,18.3896,31.3708,3793.06
2024-01-01 01:15:10+00:00,-2.5107,-2.6182,-1.2479,28.756,1.3805,18.3857,31.0583,3796.81
2024-01-01 01:15:20+00:00,-2.1723,-2.4536,-1.0234,28.6479,1.4321,17.9792,31.194,3758.95
2024-01-01 01:15:30+00:00,-2.1287,-2.5271,-0.6656,28.67,1.7707,18.428,30.5305,3766.36
2024-01-01 01:15:40+00:00,-2.5116,-2.5261,-0.6396,28.7408,1.2794,18.155,30.708,3795.6
2024-01-01 01:15:50+00:00,-2.4744,-2.5642,-0.7805,28.5928,1.586,18.8255,31.0472,3773.46
2024-01-01 01:16:00+00:00,-2.2719,-2.3458,-0.3998,28.8141,1.6744,18.7316,30.4936,3748.83
2024-01-01 01:16:10+00:00,-2.6366,-2.444,-0.3207,28.5182,1.4105,18.696,31.0008,3767.96
2024-01-01 01:16:20+00:00,-2.3808,-2.3228,-0.6548,28.8126,1.4209,18.7189,30.1086,3782.91
2024-01-01 01:16:30+00:00,-2.4322,-2.2741,-0.553,28.8322,1.4739,18.5015,30.4714,3749.74
2024-01-01 01:16:40+00:00,-2.3436,-2.4018,-0.7069,28.7174,1.434,18.7292,30.282,3814.57
2024-01-01 01:16:50+00:00,-2.552,-2.5424,-0.415,28.6839,1.5558,19.1014,31.3784,3804.97
2024-01-01 01:17:00+00:00,-2.6819,-2.306,-0.8481,28.7772,1.6883,18.8359,30.1045,3798.86
2024-01-01 01:17:10+00:00,-2.757,-2.3874,-0.0784,28.8928,1.5086,18.5014,30.3657,3781.66
2024-01-01 01:17:20+00:00,-2.5439,-2.0618,-0.2201,28.8744,1.7111,19.1887,29.338,3754.43
2024-01-01 01:17:30+00:00,-2.3899,-2.4005,-0.7824,28.7398,1.7909,18.6678,29.6043,3761.65
2024-01-01 01:17:40+00:00,-2.3342,-2.3368,-0.6575,28.8728,1.6544,18.923,30.1304,3804.18
2024-01-01 01:17:50+00:00,-1.8652,-2.3921,-0.3324,28.8999,1.6778,18.8509,29.839,3761.11
2024-01-01 01:18:00+00:00,-2.0082,-2.4444,-0.4997,28.9072,1.5191,18.2721,29.783,3775.58
2024-01-01 01:18:10+00:00,-2.3983,-2.462,-0.2563,28.7984,1.2242,19.1701,29.687,3769.69
2024-01-01 01:18:20+00:00,-2.1126,-2.3724,-0.4595,28.9245,1.715,19.8328,29.6789,3771.58
2024-01-01 01:18:30+00:00,-2.2394,-2.3314,0.0343,29.0128,1.7563,19.3413,29.0042,3771.41
2024-01-01 01:18:40+00:00,-2.1905,-2.2293,-0.3219,28.9869,1.6829,20.1993,29.5897,3768.37
2024-01-01 01:18:50+00:00,-2.0719,-2.3486,0.304,28.9867,1.7929,19.3302,29.4722,3763.31
2024-01-01 01:19:00+00:00,-1.9601,-2.4567,-0.1275,29.1223,1.5842,19.5092,29.9219,3765.14
2024-01-01 01:19:10+00:00,-2.1266,-2.4283,-0.5925,28.9874,1.7543,19.4788,29.7645,3766.52
2024-01-01 01:19:20+00:00,-1.8204,-2.5695,0.2896,28.8992,1.9075,19.5962,28.234,3750.97
2024-01-01 01:19:30+00:00,-2.2358,-2.1133,0.0657,28.9124,1.7969,19.758,29.0066,3740.99
2024-01-01 01:19:40+00:00,-1.98,-2.4349,-0.0908,29.0269,1.9089,20.1696,29.956,3760.74
2024-01-01 01:19:50+00:00,-1.4354,-2.1996,-0.001,28.8788,1.9204,19.5351,29.5321,3749.77
2024-01-01 01:20:00+00:00,-1.8837,-2.2939,-0.4367,29.0047,1.5454,19.8603,29.3006,3765.07
2024-01-01 01:20:10+00:00,-1.6149,-2.2802,-0.5674,29.0957,1.8473,20.1141,28.8375,3744.16
2024-01-01 01:20:20+00:00,-1.8561,-2.3336,-0.1035,29.1799,1.6555,20.3857,29.2688,3726.74
2024-01-01 01:20:30+00:00,-1.7308,-2.4241,0.2749,28.9221,1.5951,19.4274,28.3007,3792.76
2024-01-01 01:20:40+00:00,-1.8307,-2.4408,0.0524,29.1002,1.7294,19.7289,28.6144,3750.09
2024-01-01 01:20:50+00:00,-1.8256,-2.0257,0.404,29.0974,2.0465,20.2349,28.9125,3717.32
2024-01-01 01:21:00+00:00,-1.9193,-2.257,0.3303,29.1221,1.7131,20.6335,28.9512,3775.71
2024-01-01 01:21:10+00:00,-1.6489,-2.0942,0.0284,29.1467,1.5423,20.2291,28.7283,3750.04
2024-01-01 01:21:20+00:00,-1.8767,-2.0439,0.3425,29.1436,1.6007,20.6503,28.7326,3757.54
2024-01-01 01:21:30+00:00,-1.5445,-2.3016,0.4504,29.3004,1.9007,21.1198,28.5741,3760.26
2024-01-01 01:21:40+00:00,-1.4315,-2.1646,0.073,29.3001,1.7268,20.607,28.3155,3775.32
2024-01-01 01:21:50+00:00,-1.5459,-2.2092,0.0628,29.4047,1.5458,20.6135,28.911,3760.19
2024-01-01 01:22:00+00:00,-1.647,-2.3772,0.1746,29.2041,1.6533,20.9022,29.0482,3725.05
2024-01-01 01:22:10+00:00,-1.4693,-2.2188,-0.4403,29.1789,1.901,20.8939,28.2202,3728.1
2024-01-01 01:22:20+00:00,-1.5919,-2.09,0.2559,29.1382,2.0049,20.9962,27.7031,3722.25
2024-01-01 01:22:30+00:00,-1.3129,-2.2399,0.3891,29.1981,1.8331,20.9457,28.0119,3739.98
2024-01-01 01:22:40+00:00,-1.836,-2.2004,0.2682,29.3366,2.0095,21.0037,28.0731,3756.65
2024-01-01 01:22:50+00:00,-1.5063,-2.1641,0.3413,29.3673,2.0616,20.861,27.0868,3731.54
2024-01-01 01:23:00+00:00,-1.8066,-1.8076,0.2673,29.3633,1.8191,21.4282,28.4385,3733.13
2024-01-01 01:23:10+00:00,-1.6765,-2.3854,-0.1982,29.2448,1.9308,21.0147,27.58,3731.2
2024-01-01 01:23:20+00:00,-1.0736,-2.0207,0.7397,29.2609,1.8714,21.1645,27.4367,3732.81
2024-01-01 01:23:30+00:00,-1.1361,-2.1194,0.2549,29.5381,2.0548,21.1337,27.5636,3756.99
2024-01-01 01:23:40+00:00,-1.4275,-2.1628,0.2152,29.275,1.8947,21.4791,27.4422,3736.55
2024-01-01 01:23:50+00:00,-1.5525,-2.0933,0.7319,29.5156,1.8172,21.6691,27.5859,3763.38
2024-01-01 01:24:00+00:00,-1.8131,-1.9363,0.6598,29.4304,2.0198,21.4162,27.8108,3729.48
2024-01-01 01:24:10+00:00,-1.2969,-1.9123,0.506,29.3326,2.1913,21.7515,27.9368,3739.58
2024-01-01 01:24:20+00:00,-0.672,-1.9774,0.6526,29.3035,2.1141,21.9656,27.6744,3733.97
2024-01-01 01:24:30+00:00,-1.0368,-1.8255,0.194,29.3692,2.2015,21.5324,26.9126,3742.45
2024-01-01 01:24:40+00:00,-1.2033,-1.783,0.4849,29.4961,2.2013,21.8618,27.1775,3746.22
2024-01-01 01:24:50+00:00,-0.9658,-1.8345,0.8511,29.3796,2.0828,22.718,27.1944,3734.9
2024-01-01 01:25:00+00:00,-1.3383,-2.0223,0.3803,29.6424,2,22.0513,27.2067,3787.07
2024-01-01 01:25:10+00:00,-1.0527,-1.8494,0.3221,29.4826,1.9723,22.564,27.2107,3762.53
2024-01-01 01:25:20+00:00,-0.9403,-1.8317,0.6134,29.59,1.8779,22.2873,26.9773,3720
2024-01-01 01:25:30+00:00,-0.9443,-2.0117,0.6412,29.5984,2.3076,22.5879,26.8426,3756.6
2024-01-01 01:25:40+00:00,-0.7356,-2.1074,0.7993,29.7153,2.0929,22.3774,27.1725,3753.16
2024-01-01 01:25:50+00:00,-0.7915,-2.1577,0.3146,29.526,1.9001,22.135,26.6861,3701.4
2024-01-01 01:26:00+00:00,-0.6932,-1.826,0.0434,29.5972,2.3544,22.6626,27.0529,3684.11
2024-01-01 01:26:10+00:00,-0.931,-1.7737,0.9326,29.4632,2.1968,23.0171,26.9263,3729.44
2024-01-01 01:26:20+00:00,-0.58,-1.9775,0.4529,29.6305,2.3413,23.1779,27.1128,3721.18
2024-01-01 01:26:30+00:00,-0.4,-1.6248,0.5924,29.7511,2.1705,23.1075,26.5495,3672.94
2024-01-01 01:26:40+00:00,-0.8859,-1.7403,0.2202,29.676,2.1043,22.9219,26.9706,3723.76
2024-01-01 01:26:50+00:00,-0.8354,-1.5418,1.0427,29.9023,2.3037,23.5218,26.2024,3720.8
2024-01-01 01:27:00+00:00,-0.3566,-1.6696,0.8954,29.7401,2.3298,23.1201,26.3926,3706.34
2024-01-01 01:27:10+00:00,-0.6278,-1.8659,0.9061,29.6512,2.2222,23.2297,26.4909,3748.71
2024-01-01 01:27:20+00:00,-0.2745,-1.6178,0.925,29.7679,2.4749,23.2252,25.7111,3711.3
2024-01-01 01:27:30+00:00,-0.6095,-1.5664,0.3546,29.5932,2.4334,23.4839,25.8888,3706.49
2024-01-01 01:27:40+00:00,-0.1955,-1.7293,0.6436,29.6768,2.3901,23.6139,25.7092,3713
2024-01-01 01:27:50+00:00,-0.4258,-1.8435,0.7971,29.6523,2.1527,23.8825,25.8837,3684.33
2024-01-01 01:28:00+00:00,-0.3659,-1.5919,0.7429,29.7929,2.1454,23.4807,25.624,3691.84
2024-01-01 01:28:10+00:00,-0.07,-1.7367,0.882,29.8025,2.5267,23.8408,25.81,3652.37
2024-01-01 01:28:20+00:00,-0.4206,-1.398,1.0311,29.9464,2.0324,23.8311,25.6666,3715.02
2024-01-01 01:28:30+00:00,-0.5018,-1.6065,1.2407,29.8333,2.3609,24.292,25.5163,3724.16
2024-01-01 01:28:40+00:00,-0.3686,-1.2658,0.6384,29.7603,2.4105,24.3472,25.6186,3710.02
2024-01-01 01:28:50+00:00,-0.1536,-1.8221,1.0255,30.0339,2.3289,24.0403,25.2156,3706.99
2024-01-01 01:29:00+00:00,-0.5224,-1.4621,1.2246,29.6009,2.411,24.5896,25.0739,3699.6
2024-01-01 01:29:10+00:00,-0.0469,-1.2465,0.8345,29.9166,2.4933,24.5191,24.8717,3729.92
2024-01-01 01:29:20+00:00,-0.2473,-1.5729,1.036,29.952,2.3561,24.8658,24.564,3695.24
2024-01-01 01:29:30+00:00,0.1249,-1.4415,1.2193,29.9466,2.5903,24.527,24.9375,3714.56
2024-01-01 01:29:40+00:00,-0.5487,-1.4562,1.1238,30.0151,2.5594,24.991,25.3552,3710.99
2024-01-01 01:29:50+00:00,-0.1922,-1.4763,1.3076,29.9936,2.459,25.1664,24.9907,3666
2024-01-01 01:30:00+00:00,-0.3373,-1.3149,1.1807,30.05,2.376,25.0207,25.0049,3705.09
2024-01-01 01:30:10+00:00,-0.1303,-1.5236,1.0968,29.9572,2.5004,25.7224,24.7683,3668.11
2024-01-01 01:30:20+00:00,0.1193,-1.3235,0.8991,29.889,2.8445,25.3336,25.6333,3677.61
2024-01-01 01:30:30+00:00,0.0689,-1.2068,1.2714,30.0477,2.4283,25.808,24.8568,3683.65
2024-01-01 01:30:40+00:00,0.0889,-1.2937,1.2517,29.9671,2.7854,26.1288,24.4933,3710.72
2024-01-01 01:30:50+00:00,0.1426,-1.3886,0.9955,30.0144,2.3065,24.9633,24.2282,3669.76
2024-01-01 01:31:00+00:00,0.2499,-1.061,1.4059,30.2208,2.4546,25.9035,25.2665,3689.1
2024-01-01 01:31:10+00:00,0.0424,-1.0828,1.5939,30.2778,2.5162,25.8058,23.9507,3649.65
2024-01-01 01:31:20+00:00,0.4202,-1.3252,1.1282,30.2537,2.7539,25.8166,24.1238,3675.49
2024-01-01 01:31:30+00:00,0.4461,-1.3397,1.1274,30.2525,2.6337,25.638,24.0543,3668.03
2024-01-01 01:31:40+00:00,0.4253,-1.2648,1.1341,30.1801,2.8358,25.6614,24.2884,3701.18
2024-01-01 01:31:50+00:00,0.4942,-1.0165,0.9211,30.293,2.6033,25.7052,24.3746,3659.3
2024-01-01 01:32:00+00:00,0.4768,-1.0332,1.8573,30.2443,2.6589,26.7804,24.1903,3641.36
2024-01-01 01:32:10+00:00,0.8591,-0.932,1.2592,30.4208,2.6315,26.3517,23.9474,3662.32
2024-01-01 01:32:20+00:00,0.4691,-1.0754,1.1717,30.1515,2.9986,25.8897,23.4648,3656.96
2024-01-01 01:32:30+00:00,0.4595,-1.141,1.1194,30.3277,2.5403,26.0734,24.6968,3672.47
2024-01-01 01:32:40+00:00,0.4046,-0.8402,1.3186,30.1512,2.6459,25.8732,23.9906,3692.32
2024-01-01 01:32:50+00:00,0.3831,-1.0367,1.256,30.3626,2.5891,26.9295,24.0422,3657.49
2024-01-01 01:33:00+00:00,0.3748,-0.9012,1.8033,30.14,2.8355,26.6769,23.4753,3669.81
2024-01-01 01:33:10+00:00,0.4801,-1.137,1.1454,30.2076,2.592,26.907,23.5574,3658.78
2024-01-01 01:33:20+00:00,0.6777,-0.9653,1.0865,30.2177,3.0501,26.8457,24.076,3669.04
2024-01-01 01:33:30+00:00,0.7926,-0.7036,1.6224,30.3881,2.8024,27.2197,22.6555,3637.73
2024-01-01 01:33:40+00:00,0.7698,-0.9376,1.4707,30.4152,2.8657,26.9065,23.7737,3655.06
2024-01-01 01:33:50+00:00,0.6402,-0.683,1.4545,30.6417,2.8868,27.2041,23.3003,3672.63
2024-01-01 01:34:00+00:00,1.0069,-1.1297,1.6627,30.4043,2.8278,27.2873,23.4963,3636.72
2024-01-01 01:34:10+00:00,1.0083,-0.8388,1.5692,30.5075,2.8624,26.9463,23.9268,3646.68
2024-01-01 01:34:20+00:00,0.8619,-0.7554,1.5354,30.463,2.8702,27.1665,23.0006,3646.96
2024-01-01 01:34:30+00:00,0.7965,-0.443,1.2074,30.5324,2.9487,27.3813,22.042,3616.85
2024-01-01 01:34:40+00:00,1.0699,-0.8543,1.1533,30.4945,2.7607,27.6568,22.6173,3659.11
2024-01-01 01:34:50+00:00,1.0308,-0.5528,1.4065,30.6066,2.7485,28.065,22.9902,3631.44
2024-01-01 01:35:00+00:00,0.7364,-0.4693,1.3215,30.4078,3.0336,27.7709,23.5759,3640.06
2024-01-01 01:35:10+00:00,1.0452,-0.7105,1.6706,30.2846,2.9232,27.7971,22.6922,3651.42
2024-01-01 01:35:20+00:00,1.1438,-0.6326,1.164,30.5874,2.6356,28.0033,23.3981,3651.58
2024-01-01 01:35:30+00:00,0.9439,-0.5295,1.5121,30.3814,2.8782,27.9497,21.7804,3611.62
2024-01-01 01:35:40+00:00,1.1941,-0.7472,1.5905,30.7092,3.1919,28.0761,22.4404,3641.79
2024-01-01 01:35:50+00:00,0.8973,-0.5673,1.6335,30.5393,2.9512,28.6234,22.9885,3651.3
2024-01-01 01:36:00+00:00,1.4874,-0.2817,1.7525,30.5063,2.9084,28.187,22.8826,3616.58
2024-01-01 01:36:10+00:00,1.5016,-0.3687,1.5802,30.8961,2.7766,28.4173,21.6551,3643.69
2024-01-01 01:36:20+00:00,1.2331,-0.4446,1.5038,30.64,2.9283,28.2296,22.0326,3634.15
2024-01-01 01:36:30+00:00,1.3878,-0.378,1.9903,30.6365,2.8515,28.8852,22.2452,3633.83
2024-01-01 01:36:40+00:00,0.8644,-0.2817,1.6074,30.748,3.1029,28.317,21.967,3639.32
2024-01-01 01:36:50+00:00,1.1462,-0.2268,2.0502,30.7703,3.0584,28.6518,22.6324,3602.43
2024-01-01 01:37:00+00:00,1.3497,-0.3999,1.6218,30.8181,3.0088,29.0505,22.1021,3599.28
2024-01-01 01:37:10+00:00,1.2247,-0.06,1.7064,30.5863,2.9613,28.5779,21.4515,3639.47
2024-01-01 01:37:20+00:00,1.6125,-0.0665,1.6829,30.7884,3.3168,29.1795,22.1459,3608.12
2024-01-01 01:37:30+00:00,1.8995,-0.1361,1.7822,30.7207,2.9942,28.3853,22.0996,3583.35
2024-01-01 01:37:40+00:00,1.2948,-0.3377,1.6259,30.673,3.0068,28.7528,21.3671,3607.23
2024-01-01 01:37:50+00:00,1.3926,-0.338,1.7612,30.7848,3.0876,29.1319,21.4031,3606.35
2024-01-01 01:38:00+00:00,1.6368,-0.2076,2.1258,30.6138,3.1204,29.9622,21.4077,3611.41
2024-01-01 01:38:10+00:00,1.9415,-0.123,2.011,30.9019,3.22,29.3616,22.1719,3596.79
2024-01-01 01:38:20+00:00,1.4041,-0.371,2.0181,30.7952,3.299,29.4461,21.523,3637.22
2024-01-01 01:38:30+00:00,1.7274,-0.0051,1.4237,30.791,3.2994,29.8179,20.6078,3582.51
2024-01-01 01:38:40+00:00,2.0707,0.1402,1.469,30.8394,3.547,29.2245,20.9435,3559.55
2024-01-01 01:38:50+00:00,1.4046,0.06,1.8229,30.8507,2.9401,28.7167,21.6446,3566.96
2024-01-01 01:39:00+00:00,1.5071,-0.1014,1.9653,30.9957,3.24,30.2224,21.1285,3579.5
2024-01-01 01:39:10+00:00,1.7068,-0.0927,1.6468,30.7862,3.1385,29.9587,20.7345,3601.66
2024-01-01 01:39:20+00:00,1.7152,0.0979,1.6057,30.8715,3.5292,29.718,21.0079,3585.94
2024-01-01 01:39:30+00:00,2.0095,0.0563,2.1319,30.9018,3.2651,29.9425,21.4857,3594.87
2024-01-01 01:39:40+00:00,1.9227,0.1722,1.9579,30.8307,2.9453,30.3139,21.8977,3572.4
2024-01-01 01:39:50+00:00,1.5465,0.2224,2.0536,30.9667,3.3257,30.0319,20.9382,3591.91
2024-01-01 01:40:00+00:00,2.0314,0.3223,1.6812,30.8918,3.3114,30.1858,21.0916,3549.87
2024-01-01 01:40:10+00:00,1.8395,0.0151,1.6636,30.8371,3.3957,30.8239,20.7901,3582.59
2024-01-01 01:40:20+00:00,2.2362,0.2445,2.0327,31.0433,3.184,29.9104,20.8524,3589.19
2024-01-01 01:40:30+00:00,1.8819,0.1831,1.7313,31.1584,3.3521,30.5082,20.3296,3556.62
2024-01-01 01:40:40+00:00,1.9059,0.2492,1.6454,31.0214,3.2727,30.0553,21.2125,3606.53
2024-01-01 01:40:50+00:00,2.167,0.4199,1.5708,31.019,3.2228,30.9589,20.3862,3533.22
2024-01-01 01:41:00+00:00,2.2366,0.4625,1.6718,31.0295,3.385,30.6452,20.0649,3582.57
2024-01-01 01:41:10+00:00,2.1986,0.5525,2.0187,31.0029,3.3665,30.4178,20.1324,3583.07
2024-01-01 01:41:20+00:00,1.7965,0.4327,1.4225,31.1838,3.511,30.2395,20.6416,3546.85
2024-01-01 01:41:30+00:00,2.2656,0.3785,1.9569,31.0884,3.3673,30.6497,20.0317,3568.29
2024-01-01 01:41:40+00:00,1.9753,0.3832,1.622,30.8732,3.4634,30.8747,20.8537,3542.56
2024-01-01 01:41:50+00:00,2.253,0.1869,1.7456,31.2229,3.2013,31.23,20.4388,3563.38
2024-01-01 01:42:00+00:00,1.9447,0.6741,1.7604,31.2101,3.601,30.6171,20.4638,3550.83
2024-01-01 01:42:10+00:00,2.3419,0.4508,1.7403,31.1865,3.2845,30.7597,19.888,3553.06
2024-01-01 01:42:20+00:00,2.1142,0.6008,1.7219,30.8622,3.5457,30.919,19.7434,3539.09
2024-01-01 01:42:30+00:00,2.0416,0.6526,1.6805,31.1488,3.4587,30.8958,19.9418,3536.95
2024-01-01 01:42:40+00:00,2.4632,0.3897,1.6463,31.2496,3.4486,31.0334,19.3905,3530.8
2024-01-01 01:42:50+00:00,2.3907,0.4637,2.1164,31.2091,3.551,30.9628,19.9913,3556.85
2024-01-01 01:43:00+00:00,2.2412,0.8599,1.7897,31.2025,3.1246,31.4292,20.1065,3575.09
2024-01-01 01:43:10+00:00,2.6756,0.697,1.7487,31.2822,3.3681,31.2161,19.4001,3584.98
2024-01-01 01:43:20+00:00,2.3182,0.5918,1.6154,31.2171,3.5745,31.4202,19.8903,3555.86
2024-01-01 01:43:30+00:00,2.4335,0.6854,1.6707,31.3339,3.7591,31.5634,19.654,3534.76
2024-01-01 01:43:40+00:00,2.5012,0.8926,1.6082,31.2399,3.4753,31.1126,19.9365,3552.5
2024-01-01 01:43:50+00:00,2.3435,0.8951,1.9553,31.2419,3.1213,31.7579,20.0855,3537.28
2024-01-01 01:44:00+00:00,2.5813,0.5602,1.5708,31.3328,3.4473,31.6951,19.679,3521.07
2024-01-01 01:44:10+00:00,2.3998,1.0503,1.1926,31.2134,3.4936,31.747,19.2823,3565.07
2024-01-01 01:44:20+00:00,2.4431,0.9751,1.7633,31.153,3.6766,31.6946,19.7257,3542.85
2024-01-01 01:44:30+00:00,2.8167,0.8322,1.6733,31.2725,3.5249,31.7035,19.2012,3506.11
2024-01-01 01:44:40+00:00,2.3544,0.7011,1.5907,31.3403,3.3335,31.8494,19.0151,3537.89
2024-01-01 01:44:50+00:00,2.0979,1.0627,1.9588,31.3828,3.6767,31.9099,18.8167,3527.82
2024-01-01 01:45:00+00:00,2.9203,1.0006,1.041,31.3921,3.6245,31.5741,19.0391,3495.19
2024-01-01 01:45:10+00:00,3.1252,0.735,2.1116,31.3008,3.4413,32.4469,19.3417,3513.06
2024-01-01 01:45:20+00:00,2.5512,0.9432,1.9741,31.299,3.6609,31.8107,18.4669,3508.05
2024-01-01 01:45:30+00:00,2.2615,1.4713,1.5461,31.2652,3.4775,32.0836,18.3235,3454.87
2024-01-01 01:45:40+00:00,2.603,1.029,1.5827,31.3575,3.5213,32.4564,18.2717,3476.23
2024-01-01 01:45:50+00:00,2.6237,0.9393,1.8135,31.1763,3.4929,32.0465,19.109,3523.84
2024-01-01 01:46:00+00:00,2.6584,0.9232,1.812,31.3505,3.5321,32.2614,18.8003,3485.27
2024-01-01 01:46:10+00:00,2.4888,1.3641,1.5122,31.6407,3.7206,31.5733,19.1717,3509.04
2024-01-01 01:46:20+00:00,2.8422,1.2492,1.2577,31.2127,3.3226,31.6755,18.3154,3520.23
2024-01-01 01:46:30+00:00,2.8455,1.3567,2.1812,31.386,3.7619,32.3007,17.9752,3451.06
2024-01-01 01:46:40+00:00,2.4558,1.2062,1.8825,31.4151,3.6283,32.4026,19.0287,3522.26
2024-01-01 01:46:50+00:00,2.9081,1.3804,1.673,31.4348,3.5488,32.7139,18.0535,3484.16
2024-01-01 01:47:00+00:00,3.1921,1.0882,1.6678,31.2941,3.6157,32.6578,18.56,3492.88
2024-01-01 01:47:10+00:00,2.8288,1.2629,1.7691,31.4488,3.4814,31.9742,17.6982,3521.43
2024-01-01 01:47:20+00:00,2.7395,1.3045,1.7885,31.35,3.378,32.8657,18.2467,3499.48
2024-01-01 01:47:30+00:00,2.7907,1.4916,1.071,31.2668,3.4955,32.1604,18.0518,3474.16
2024-01-01 01:47:40+00:00,2.9539,1.3546,1.4939,31.5106,3.348,32.8077,17.4904,3464.55
2024-01-01 01:47:50+00:00,2.4961,1.2355,1.4566,31.4876,3.434,32.4437,18.76,3463.74
2024-01-01 01:48:00+00:00,2.886,1.3612,1.5185,31.3299,3.3979,33.4232,17.5912,3458.91
2024-01-01 01:48:10+00:00,2.7857,1.1223,1.7398,31.3775,3.8291,32.4596,17.5161,3492.96
2024-01-01 01:48:20+00:00,3.2435,1.0476,1.0875,31.379,3.457,32.6417,17.5724,3475.99
2024-01-01 01:48:30+00:00,2.849,1.5424,1.1855,31.2775,3.6473,32.7376,16.9066,3466.86
2024-01-01 01:48:40+00:00,3.2268,1.3831,1.3398,31.5228,3.8248,32.6425,17.5917,3455.75
2024-01-01 01:48:50+00:00,2.6815,1.4217,1.536,31.5311,3.7884,32.4402,17.4056,3472.15
2024-01-01 01:49:00+00:00,3.0283,1.6069,1.6924,31.4222,3.6201,33.4236,18.009,3417.35
2024-01-01 01:49:10+00:00,2.983,1.713,1.879,31.4568,3.6241,32.6012,17.6835,3489.74
2024-01-01 01:49:20+00:00,2.7532,1.6047,1.386,31.475,3.6978,32.6114,16.9954,3444.56
2024-01-01 01:49:30+00:00,2.9699,1.8346,1.6514,31.4917,3.9906,32.7924,17.1868,3428.31
2024-01-01 01:49:40+00:00,3.184,1.6415,1.6073,31.336,3.7386,32.902,18.2563,3467.71
2024-01-01 01:49:50+00:00,2.8834,1.632,1.551,31.5229,3.7795,32.6563,16.9754,3464.66
2024-01-01 01:50:00+00:00,2.616,1.643,1.395,31.3597,4.0217,33.1645,17.616,3438.12
2024-01-01 01:50:10+00:00,2.9568,1.4343,1.2864,31.5483,3.7258,32.9399,16.9612,3463.56
2024-01-01 01:50:20+00:00,2.7853,1.7905,1.105,31.3764,3.8585,32.9147,16.7789,3454.47
2024-01-01 01:50:30+00:00,2.9023,1.3001,1.0733,31.3554,3.76,33.0896,16.9105,3439.4
2024-01-01 01:50:40+00:00,2.9591,1.5986,1.4275,31.4849,3.7597,32.68,17.6629,3396.38
2024-01-01 01:50:50+00:00,2.6386,1.7094,1.3115,31.4848,3.5474,32.7704,16.4355,3429.09
2024-01-01 01:51:00+00:00,2.6604,1.6067,1.2054,31.5022,3.5241,32.9496,17.2331,3424.11
2024-01-01 01:51:10+00:00,3.0834,1.6765,1.4594,31.4042,3.618,33.2443,17.4065,3416.33
2024-01-01 01:51:20+00:00,2.8855,2.039,1.2268,31.5153,3.8283,32.9003,16.6464,3411.25
2024-01-01 01:51:30+00:00,2.4797,1.9473,1.0321,31.526,3.8222,32.8854,17.2148,3431.04
2024-01-01 01:51:40+00:00,3.1519,1.6973,1.177,31.614,3.8979,32.3539,17.1017,3388.46
2024-01-01 01:51:50+00:00,3.0512,1.748,1.4319,31.5169,3.697,32.7833,16.3918,3434.58
2024-01-01 01:52:00+00:00,2.8554,1.6449,0.9537,31.4391,3.7799,32.5,16.2842,3407.03
2024-01-01 01:52:10+00:00,2.7358,1.9601,1.2446,31.3649,3.781,32.5774,16.5524,3388.52
2024-01-01 01:52:20+00:00,3.167,1.8345,1.1609,31.3469,3.6838,33.1092,16.6075,3396.88
2024-01-01 01:52:30+00:00,3.0699,1.5944,0.9668,31.5323,3.6518,33.9957,16.3668,3403.98
2024-01-01 01:52:40+00:00,3.4763,1.9217,1.0658,31.5792,3.4772,33.0577,16.6915,3426.16
2024-01-01 01:52:50+00:00,3.0832,1.9894,0.7281,31.4106,3.6768,33.0977,16.1071,3408.82
2024-01-01 01:53:00+00:00,3.0757,2.0848,1.1301,31.5246,3.6837,32.767,16.0033,3415.54
2024-01-01 01:53:10+00:00,2.9634,1.9459,0.743,31.481,3.8689,32.6768,16.3212,3387.94
2024-01-01 01:53:20+00:00,3.1583,1.9174,1.3336,31.5693,3.8829,33.6033,16.3629,3382.25
2024-01-01 01:53:30+00:00,3.1177,2.2873,1.0237,31.583,3.7189,32.7389,16.7485,3420.91
2024-01-01 01:53:40+00:00,3.2404,2.0063,0.8847,31.2684,4.0055,32.3735,16.358,3378.29
2024-01-01 01:53:50+00:00,2.8827,2.1289,1.2986,31.5967,3.7233,33.039,16.4129,3367.36
2024-01-01 01:54:00+00:00,2.8965,1.9555,0.7312,31.517,3.8484,32.8272,15.9443,3362.58
2024-01-01 01:54:10+00:00,2.8839,2.1552,0.7827,31.4367,3.6769,33.1247,15.9004,3378.73
